[
  {
    "name": "崇明区东门消防救援站",
    "location": {
      "lat": 31.638557,
      "lng": 121.412257
    },
    "address": "上海市崇明区东门路562号",
    "province": "上海市",
    "city": "上海市",
    "area": "崇明区",
    "street_id": "57aa01e30c7c109971210bdd",
    "detail": 1,
    "uid": "57aa01e30c7c109971210bdd",
    "cover": "https://poi-pic-gz.cdn.bcebos.com/pic_653eeda3be6fdc6c493803c615952999.jpeg",
    "photo_list": [
      "https://mapsv0.bdimg.com/?qt=pr3dpoi&uid=57aa01e30c7c109971210bdd&width=720&height=360&quality=80&fovx=120",
      "https://poi-pic-gz.cdn.bcebos.com/pic_bd90156bed5b8f61af901706beab2adf.jpeg"
    ]
  },
  {
    "name": "崇明区陈家镇消防救援站",
    "location": {
      "lat": 31.521801,
      "lng": 121.845981
    },
    "address": "上海市崇明区裕鸿路裕鸿佳苑(西区)东南侧约200米",
    "province": "上海市",
    "city": "上海市",
    "area": "崇明区",
    "detail": 1,
    "uid": "cfdf47be305dd2c0f8dc859e",
    "cover": "https://pic-map.cdn.bcebos.com/img/ae4bc6fdbd4381e35aa85f2a6b222c18",
    "photo_list": [
      "https://pic-map.cdn.bcebos.com/img/ae4bc6fdbd4381e35aa85f2a6b222c18"
    ]
  },
  {
    "name": "崇明区消防救援支队",
    "location": {
      "lat": 31.641244,
      "lng": 121.413449
    },
    "address": "上海市崇明区育麟桥路385号",
    "province": "上海市",
    "city": "上海市",
    "area": "崇明区",
    "street_id": "",
    "telephone": "(021)59617119",
    "detail": 1,
    "uid": "aa27e8cefa21ec52c2f1cf40",
    "cover": "https://taojin-his.cdn.bcebos.com/dcc451da81cb39db4c3c8b6bd7160924ab18300b.jpg",
    "photo_list": [
      "https://taojin-his.cdn.bcebos.com/dcc451da81cb39db4c3c8b6bd7160924ab18300b.jpg"
    ]
  },
  {
    "name": "胜喆汽修补胎搭电拖车救援",
    "location": {
      "lat": 31.362209,
      "lng": 121.459579
    },
    "address": "上海市宝山区江一西路江杨水产品批发市场",
    "province": "上海市",
    "city": "上海市",
    "area": "宝山区",
    "telephone": "13170020151",
    "detail": 1,
    "uid": "726a1d2df7ed852f9b005024",
    "cover": "https://poi-pic-gz.cdn.bcebos.com/pic_45a1a0aacbb8be3bd80f6ef6a3557934.jpeg",
    "photo_list": [
      "https://poi-pic-gz.cdn.bcebos.com/pic_45a1a0aacbb8be3bd80f6ef6a3557934.jpeg",
      "https://lbsugc.cdn.bcebos.com/images/B662c78b7a97ed528a.jpeg",
      "https://lbsugc.cdn.bcebos.com/images/B662c78b7f08cae717.jpeg",
      "https://poi-pic-gz.cdn.bcebos.com/pic_31c0823f46addd996354deb6bad62a80.jpeg"
    ]
  },
  {
    "name": "崇明区消防救援支队-北门",
    "location": {
      "lat": 31.641597,
      "lng": 121.413423
    },
    "address": "上海市崇明区育麟桥路385号",
    "province": "上海市",
    "city": "上海市",
    "area": "崇明区",
    "detail": 1,
    "uid": "d1cd8e9713e914aa72210bb0",
    "cover": "https://taojin-his.cdn.bcebos.com/dcc451da81cb39db4c3c8b6bd7160924ab18300b.jpg",
    "photo_list": [
      "https://taojin-his.cdn.bcebos.com/dcc451da81cb39db4c3c8b6bd7160924ab18300b.jpg"
    ]
  },
  {
    "name": "梦缘补胎搭电拖车道路救援",
    "location": {
      "lat": 31.270346,
      "lng": 121.48607
    },
    "address": "上海市虹口区宝山路858号",
    "province": "上海市",
    "city": "上海市",
    "area": "虹口区",
    "telephone": "13215522769",
    "detail": 1,
    "uid": "1307137b865dce5bc9c3db98",
    "cover": "https://poi-pic-gz.cdn.bcebos.com/pic_eb8d0e3851e31ab565b39b02c48cab6c.jpeg",
    "photo_list": [
      "https://poi-pic-gz.cdn.bcebos.com/pic_eb8d0e3851e31ab565b39b02c48cab6c.jpeg",
      "https://poi-pic-gz.cdn.bcebos.com/pic_0d30a9bfe30032010f917978e1a7213e.jpeg",
      "https://poi-pic-gz.cdn.bcebos.com/pic_ed89735914766d8d980ae2f80691c9f4.jpg",
      "https://poi-pic-gz.cdn.bcebos.com/pic_672b1cf6a1ab93d032c67b2321fabae8.jpg",
      "https://poi-pic-gz.cdn.bcebos.com/pic_69cd4cec3d1fd9c41d71c9ebf92a80aa.jpeg",
      "https://poi-pic-gz.cdn.bcebos.com/pic_a10aa8295718151c6fa865d7a3bbd327.jpeg"
    ]
  },
  {
    "name": "基洵汽修补胎搭电拖车救援",
    "location": {
      "lat": 31.371306,
      "lng": 121.47577
    },
    "address": "上海市宝山区泰和路森谷美食公园",
    "province": "上海市",
    "city": "上海市",
    "area": "宝山区",
    "telephone": "13170020149",
    "detail": 1,
    "uid": "ec56ec102740a0b86140a93f",
    "cover": "https://poi-pic-gz.cdn.bcebos.com/pic_218bc61d580f21f4c52fd6ee17f8e92f.jpeg",
    "photo_list": [
      "https://poi-pic-gz.cdn.bcebos.com/pic_218bc61d580f21f4c52fd6ee17f8e92f.jpeg"
    ]
  },
  {
    "name": "迎顺汽修补胎搭电拖车救援",
    "location": {
      "lat": 31.283894,
      "lng": 121.226939
    },
    "address": "上海市嘉定区新黄路曹安钢材交易市场",
    "province": "上海市",
    "city": "上海市",
    "area": "嘉定区",
    "telephone": "13170020156",
    "detail": 1,
    "uid": "7760bf627cd9c48bf50e77af",
    "cover": "https://lbsugc.cdn.bcebos.com/images/B669ccf2b8c7a9d18c.jpeg",
    "photo_list": [
      "https://lbsugc.cdn.bcebos.com/images/B669ccf2b8c7a9d18c.jpeg",
      "https://lbsugc.cdn.bcebos.com/images/B669ccf2b8d506c0ef.jpeg"
    ]
  }
]