[
  {
    "name": "黄浦区救援工作站",
    "location": {
      "lat": 31.238454,
      "lng": 121.485166
    },
    "address": "上海市黄浦区福州路642号",
    "province": "上海市",
    "city": "上海市",
    "area": "黄浦区",
    "street_id": "c6bf19cdc896f4e6c33644d1",
    "detail": 1,
    "uid": "c6bf19cdc896f4e6c33644d1",
    "cover": "https://lbsugc.cdn.bcebos.com/images/B67304b44190c4d7da.jpeg",
    "photo_list": [
      "https://mapsv0.bdimg.com/?qt=pr3dpoi&uid=c6bf19cdc896f4e6c33644d1&width=720&height=360&quality=80&fovx=120"
    ]
  },
  {
    "name": "黄浦区车站消防救援站",
    "location": {
      "lat": 31.209772,
      "lng": 121.500993
    },
    "address": "上海市黄浦区南车站路500号",
    "province": "上海市",
    "city": "上海市",
    "area": "黄浦区",
    "street_id": "d63349cafcb426eb50e5c56f",
    "detail": 1,
    "uid": "d63349cafcb426eb50e5c56f",
    "cover": "https://taojin-pic-gz.cdn.bcebos.com/bos_gz_50f19cae9ebb10ed3c0f58f8d7a9ca89.jpg",
    "photo_list": [
      "https://mapsv0.bdimg.com/?qt=pr3dpoi&uid=d63349cafcb426eb50e5c56f&width=720&height=360&quality=80&fovx=120",
      "https://poi-pic-gz.cdn.bcebos.com/pic_e06e0571a845abceed9ffb052e4812b0.jpeg",
      "https://lbsugc.cdn.bcebos.com/images/B66a8371c0e7a49406.jpeg"
    ]
  },
  {
    "name": "上海程诚汽车道路救援有限公司",
    "location": {
      "lat": 31.215162,
      "lng": 121.475841
    },
    "address": "上海市黄浦区上海市黄浦区上海市黄浦区建国中路65弄-1号",
    "province": "上海市",
    "city": "上海市",
    "area": "黄浦区",
    "detail": 1,
    "uid": "394095cd60a6fce36e20b98b",
    "cover": "https://lbsugc.cdn.bcebos.com/images/B5f55851c5a6eaa0dd.jpeg",
    "photo_list": [
      "https://lbsugc.cdn.bcebos.com/images/B5f55851c5a6eaa0dd.jpeg",
      "https://lbsugc.cdn.bcebos.com/images/B61206389012de13235.jpeg",
      "https://poi-pic-gz.cdn.bcebos.com/pic_4a26afb5d1c7d8fc309bc10c7cd4ead3.jpeg",
      "https://poi-pic-gz.cdn.bcebos.com/pic_9545c0dfb5bb11f34272243ceff83f24.jpeg",
      "https://poi-pic-gz.cdn.bcebos.com/pic_9f1dfbd5162dea35ba6cb9aebcd1886a.jpeg"
    ]
  },
  {
    "name": "胜喆汽修补胎搭电拖车救援",
    "location": {
      "lat": 31.362209,
      "lng": 121.459579
    },
    "address": "上海市宝山区江一西路江杨水产品批发市场",
    "province": "上海市",
    "city": "上海市",
    "area": "宝山区",
    "telephone": "13170020151",
    "detail": 1,
    "uid": "726a1d2df7ed852f9b005024",
    "cover": "https://poi-pic-gz.cdn.bcebos.com/pic_45a1a0aacbb8be3bd80f6ef6a3557934.jpeg",
    "photo_list": [
      "https://poi-pic-gz.cdn.bcebos.com/pic_45a1a0aacbb8be3bd80f6ef6a3557934.jpeg",
      "https://lbsugc.cdn.bcebos.com/images/B662c78b7a97ed528a.jpeg",
      "https://lbsugc.cdn.bcebos.com/images/B662c78b7f08cae717.jpeg",
      "https://poi-pic-gz.cdn.bcebos.com/pic_31c0823f46addd996354deb6bad62a80.jpeg"
    ]
  },
  {
    "name": "黄浦区北京消防救援站",
    "location": {
      "lat": 31.241197,
      "lng": 121.474926
    },
    "address": "上海市黄浦区新昌路新中邨东北侧约30米",
    "province": "上海市",
    "city": "上海市",
    "area": "黄浦区",
    "street_id": "dd4fe299162db3b32d4733b8",
    "detail": 1,
    "uid": "dd4fe299162db3b32d4733b8",
    "cover": "https://poi-pic-gz.cdn.bcebos.com/pic_cbbcb9fa0f07451a7d00ae4713e719b2.jpeg",
    "photo_list": [
      "https://mapsv0.bdimg.com/?qt=pr3dpoi&uid=dd4fe299162db3b32d4733b8&width=720&height=360&quality=80&fovx=120",
      "https://poi-pic-gz.cdn.bcebos.com/pic_c8b473da4726389974437f4e151caa38.jpeg",
      "https://poi-pic-gz.cdn.bcebos.com/pic_cb39524c29c63082becbd57996d23d35.jpeg",
      "https://poi-pic-gz.cdn.bcebos.com/pic_0b5741bf3ad3efdacabf88f08e7cbce8.jpeg",
      "https://poi-pic-gz.cdn.bcebos.com/pic_24a409cb78d34b3763ccddb017bf627e.jpeg",
      "https://poi-pic-gz.cdn.bcebos.com/pic_947447b7f4a6b49dfe085085595aa9d3.jpeg"
    ]
  },
  {
    "name": "梦缘补胎搭电拖车道路救援",
    "location": {
      "lat": 31.270346,
      "lng": 121.48607
    },
    "address": "上海市虹口区宝山路858号",
    "province": "上海市",
    "city": "上海市",
    "area": "虹口区",
    "telephone": "13215522769",
    "detail": 1,
    "uid": "1307137b865dce5bc9c3db98",
    "cover": "https://poi-pic-gz.cdn.bcebos.com/pic_eb8d0e3851e31ab565b39b02c48cab6c.jpeg",
    "photo_list": [
      "https://poi-pic-gz.cdn.bcebos.com/pic_eb8d0e3851e31ab565b39b02c48cab6c.jpeg",
      "https://poi-pic-gz.cdn.bcebos.com/pic_0d30a9bfe30032010f917978e1a7213e.jpeg",
      "https://poi-pic-gz.cdn.bcebos.com/pic_ed89735914766d8d980ae2f80691c9f4.jpg",
      "https://poi-pic-gz.cdn.bcebos.com/pic_672b1cf6a1ab93d032c67b2321fabae8.jpg",
      "https://poi-pic-gz.cdn.bcebos.com/pic_69cd4cec3d1fd9c41d71c9ebf92a80aa.jpeg",
      "https://poi-pic-gz.cdn.bcebos.com/pic_a10aa8295718151c6fa865d7a3bbd327.jpeg"
    ]
  },
  {
    "name": "基洵汽修补胎搭电拖车救援",
    "location": {
      "lat": 31.371306,
      "lng": 121.47577
    },
    "address": "上海市宝山区泰和路森谷美食公园",
    "province": "上海市",
    "city": "上海市",
    "area": "宝山区",
    "telephone": "13170020149",
    "detail": 1,
    "uid": "ec56ec102740a0b86140a93f",
    "cover": "https://poi-pic-gz.cdn.bcebos.com/pic_218bc61d580f21f4c52fd6ee17f8e92f.jpeg",
    "photo_list": [
      "https://poi-pic-gz.cdn.bcebos.com/pic_218bc61d580f21f4c52fd6ee17f8e92f.jpeg"
    ]
  },
  {
    "name": "奔赤汽修补胎搭电拖车救援",
    "location": {
      "lat": 31.358635,
      "lng": 121.455663
    },
    "address": "上海市宝山区虎林路吴淞物流园区",
    "province": "上海市",
    "city": "上海市",
    "area": "宝山区",
    "telephone": "13170020143",
    "detail": 1,
    "uid": "16a6a05ca57a12e349fc8d19",
    "cover": "https://poi-pic-gz.cdn.bcebos.com/pic_299f11ea048d3ecf1c717fc83198d5d3.jpeg",
    "photo_list": [
      "https://poi-pic-gz.cdn.bcebos.com/pic_299f11ea048d3ecf1c717fc83198d5d3.jpeg",
      "https://poi-pic-gz.cdn.bcebos.com/pic_7bc231a27a121ac164cd08d3f0f9e0c6.jpeg",
      "https://poi-pic-gz.cdn.bcebos.com/pic_b3c2579953c9398c5625af4abcf5a930.jpeg",
      "https://poi-pic-gz.cdn.bcebos.com/pic_36ba08815215ddb717abf5d1749c84df.jpeg",
      "https://poi-pic-gz.cdn.bcebos.com/pic_76120831bd84552581a40592aa0059d2.jpeg",
      "https://poi-pic-gz.cdn.bcebos.com/pic_ee8de6b3adb1474fad0424f73e4c0a8b.jpeg"
    ]
  }
]