[
  {
    "name": "锡林浩特市苏原道路汽车救援中心",
    "location": {
      "lat": 43.965115,
      "lng": 116.082554
    },
    "address": "锡林浩特市宝办宇鸿领秀城小区2单元601室",
    "province": "内蒙古自治区",
    "city": "锡林郭勒盟",
    "area": "锡林浩特市",
    "telephone": "13947903918",
    "detail": 1,
    "uid": "c3371a2b16661801b34c490b",
    "cover": "https://lbsugc.cdn.bcebos.com/images/B5fa919c43be74faf3.jpeg",
    "photo_list": [
      "https://lbsugc.cdn.bcebos.com/images/B5fa919c43be74faf3.jpeg"
    ]
  },
  {
    "name": "清障救援",
    "location": {
      "lat": 43.949361,
      "lng": 116.114767
    },
    "address": "锡林郭勒盟锡林浩特市东一环路锡林浩特莱茵河宾馆东侧",
    "province": "内蒙古自治区",
    "city": "锡林郭勒盟",
    "area": "锡林浩特市",
    "detail": 1,
    "uid": "6514eb6a34e7a7ebf90cad13",
    "cover": "https://poi-pic-gz.cdn.bcebos.com/pic_7548ccd1c4a81677273a79c939a01fa1.jpg",
    "photo_list": [
      "https://poi-pic-gz.cdn.bcebos.com/pic_7548ccd1c4a81677273a79c939a01fa1.jpg"
    ]
  },
  {
    "name": "瑞盛汽车救援中心",
    "location": {
      "lat": 43.93946,
      "lng": 116.117609
    },
    "address": "锡林郭勒盟锡林浩特市育才路利源生五金机电商贸城东北侧约140米",
    "province": "内蒙古自治区",
    "city": "锡林郭勒盟",
    "area": "锡林浩特市",
    "detail": 1,
    "uid": "7730771cfaa242e09868b4e2",
    "cover": "https://poi-pic-gz.cdn.bcebos.com/pic_3e4d85af325a07dd283863c8eb339da6.jpeg",
    "photo_list": [
      "https://poi-pic-gz.cdn.bcebos.com/pic_3e4d85af325a07dd283863c8eb339da6.jpeg",
      "https://poi-pic-gz.cdn.bcebos.com/pic_87abd443119bc9d0510c171fc2bf444a.jpg",
      "https://poi-pic-gz.cdn.bcebos.com/pic_fe6b0a236e6fec476ffbfcfb5e6bab89.jpeg",
      "https://poi-pic-gz.cdn.bcebos.com/pic_5beca6450fe373bbf8fb6d01b608a84b.jpeg",
      "https://poi-pic-gz.cdn.bcebos.com/pic_daa43f06493a73b1c658e15b7dbb5161.jpeg",
      "https://poi-pic-gz.cdn.bcebos.com/pic_c4e5200b9ece9a3a5fba44fcdc28f9a3.jpeg"
    ]
  },
  {
    "name": "锡林郭勒盟消防支队锡林浩特市大队",
    "location": {
      "lat": 43.969916,
      "lng": 116.114553
    },
    "address": "内蒙古自治区锡林郭勒盟锡林浩特市锡林东大街259号",
    "province": "内蒙古自治区",
    "city": "锡林郭勒盟",
    "area": "锡林浩特市",
    "detail": 1,
    "uid": "3fdd46823c3dc30e46572633",
    "cover": "https://poi-pic-gz.cdn.bcebos.com/pic_443b9e72879d6fc6e5f792d3b4595cd2.jpeg",
    "photo_list": [
      "https://poi-pic-gz.cdn.bcebos.com/pic_443b9e72879d6fc6e5f792d3b4595cd2.jpeg"
    ]
  },
  {
    "name": "锡林郭勒盟消防救援支队",
    "location": {
      "lat": 43.937807,
      "lng": 116.051679
    },
    "address": "锡林郭勒盟锡林浩特市北京路塔泰宾馆东侧约220米",
    "province": "内蒙古自治区",
    "city": "锡林郭勒盟",
    "area": "锡林浩特市",
    "street_id": "",
    "detail": 1,
    "uid": "5e022d74ffe7a28f118824cb",
    "cover": "https://pic-map.cdn.bcebos.com/img/a39c1ca0c99d399d21b9013ece163e4f",
    "photo_list": [
      "https://pic-map.cdn.bcebos.com/img/a39c1ca0c99d399d21b9013ece163e4f"
    ]
  },
  {
    "name": "西乌珠穆沁旗应急救援指挥中心",
    "location": {
      "lat": 44.586773,
      "lng": 117.625547
    },
    "address": "锡林郭勒盟西乌珠穆沁旗乌珠穆沁街西乌珠穆沁旗第一小学东南侧约130米",
    "province": "内蒙古自治区",
    "city": "锡林郭勒盟",
    "area": "西乌珠穆沁旗",
    "detail": 1,
    "uid": "f3895c2b046769593a04b1ee",
    "cover": "https://poi-pic-gz.cdn.bcebos.com/pic_dc3ffe975e48ac3b244649d13cb66505.jpg",
    "photo_list": [
      "https://poi-pic-gz.cdn.bcebos.com/pic_dc3ffe975e48ac3b244649d13cb66505.jpg"
    ]
  },
  {
    "name": "诚实道路救援有限公司",
    "location": {
      "lat": 41.882476,
      "lng": 115.295821
    },
    "address": "锡林郭勒盟太仆寺旗宝昌大街和苑小区",
    "province": "内蒙古自治区",
    "city": "锡林郭勒盟",
    "area": "太仆寺旗",
    "telephone": "(0479)5226688",
    "detail": 1,
    "uid": "c6bb9a0146303006c7f025c8",
    "cover": "https://poi-pic-gz.cdn.bcebos.com/pic_8e6b95c7cb212e6a6b02e803358faea8.jpeg",
    "photo_list": [
      "https://poi-pic-gz.cdn.bcebos.com/pic_8e6b95c7cb212e6a6b02e803358faea8.jpeg"
    ]
  }
]