[
  {
    "name": "兴隆补胎送油搭电拖车救援",
    "location": {
      "lat": 39.866399,
      "lng": 116.474375
    },
    "address": "北京市朝阳区大羊坊路东盈苑小区",
    "province": "北京市",
    "city": "北京市",
    "area": "朝阳区",
    "telephone": "13275529017",
    "detail": 1,
    "uid": "2040b1b5b40afa3ac13644a9",
    "cover": "https://poi-pic-gz.cdn.bcebos.com/pic_8371947659e160d6c86d64b4d8cfb4be.jpeg",
    "photo_list": [
      "https://poi-pic-gz.cdn.bcebos.com/pic_8371947659e160d6c86d64b4d8cfb4be.jpeg",
      "https://poi-pic-gz.cdn.bcebos.com/pic_6998a24009e8878ba4eb7ca7d7b3018a.jpeg"
    ]
  },
  {
    "name": "盛达搭电救援补胎维修",
    "location": {
      "lat": 39.898039,
      "lng": 116.43546
    },
    "address": "北京市东城区龙潭街道黄杉木店东街193号",
    "province": "北京市",
    "city": "北京市",
    "area": "东城区",
    "detail": 1,
    "uid": "f64ac274825b57ee6fc02cb8",
    "cover": "https://poi-pic-gz.cdn.bcebos.com/pic_71647eff675da8f8c0d0a6a99556e8c5.jpeg",
    "photo_list": [
      "https://poi-pic-gz.cdn.bcebos.com/pic_71647eff675da8f8c0d0a6a99556e8c5.jpeg"
    ]
  },
  {
    "name": "消防救援",
    "location": {
      "lat": 40.386607,
      "lng": 116.654609
    },
    "address": "北京市怀柔区雁栖湖西路与雁栖湖路交叉路口往西南约180米",
    "province": "北京市",
    "city": "北京市",
    "area": "怀柔区",
    "detail": 1,
    "uid": "a4d363ddbbb2b37c5f17c3b2",
    "cover": "https://pic-map.cdn.bcebos.com/img/38e1ab12a3ddd2b52cf8f77ccdddb36d",
    "photo_list": [
      "https://pic-map.cdn.bcebos.com/img/38e1ab12a3ddd2b52cf8f77ccdddb36d"
    ]
  },
  {
    "name": "怀柔区迎宾路消防救援站",
    "location": {
      "lat": 40.317184,
      "lng": 116.644018
    },
    "address": "北京市怀柔区迎宾路迎宾中路2号院西侧约90米",
    "province": "北京市",
    "city": "北京市",
    "area": "怀柔区",
    "street_id": "",
    "detail": 1,
    "uid": "5c9d49ddc9ca7914da2f2869",
    "cover": "https://poi-pic-gz.cdn.bcebos.com/pic_48522825758466015ab5291a05281eb5.jpg",
    "photo_list": [
      "https://poi-pic-gz.cdn.bcebos.com/pic_48522825758466015ab5291a05281eb5.jpg",
      "https://poi-pic-gz.cdn.bcebos.com/pic_c5fad592437e25ef3251343faa1e2020.jpg",
      "https://poi-pic-gz.cdn.bcebos.com/pic_188bd670fa54f3d02e41b300135b0fa8.jpg",
      "https://poi-pic.cdn.bcebos.com/c5fad592437e25ef3251343faa1e2020.jpg",
      "https://poi-pic-gz.cdn.bcebos.com/pic_2f3612b83b5461ec2f5760ff15917dd8.jpeg",
      "https://poi-pic-gz.cdn.bcebos.com/pic_0c8183843a645f0d2b6d5d60054dbbe0.jpeg"
    ]
  },
  {
    "name": "轮胎专卖补胎救援",
    "location": {
      "lat": 40.218117,
      "lng": 116.759516
    },
    "address": "北京市顺义区昌金路与李魏路交叉路口西南侧",
    "province": "北京市",
    "city": "北京市",
    "area": "顺义区",
    "telephone": "15321838818",
    "detail": 1,
    "uid": "772de384690bed79353a715e",
    "cover": "https://lbsugc.cdn.bcebos.com/images/a4ecbdfb95827de7c5cfaf3f372c282e_2138.jpeg",
    "photo_list": [
      "https://lbsugc.cdn.bcebos.com/images/a4ecbdfb95827de7c5cfaf3f372c282e_2138.jpeg",
      "https://lbsugc.cdn.bcebos.com/images/22cf74b2bcfa2bc2e8fecd9d30373962_3231.jpeg",
      "https://lbsugc.cdn.bcebos.com/images/d2a7d2790cbba3faa92e8ad2a663d831_3832.jpeg",
      "https://lbsugc.cdn.bcebos.com/images/a28df46eb0af32c8e515c703f6d8c0e5_4524.jpeg",
      "https://lbsugc.cdn.bcebos.com/images/4a10182ab10b1bcfb9df5865e20ba73d_3485.jpeg",
      "https://pic-map.cdn.bcebos.com/img/00efc73d9705a1e296e0416586cec3f6"
    ]
  },
  {
    "name": "北利汽车补胎搭电拖车修理厂",
    "location": {
      "lat": 39.959794,
      "lng": 116.501832
    },
    "address": "北京市朝阳区东风南路东山公寓",
    "province": "北京市",
    "city": "北京市",
    "area": "朝阳区",
    "detail": 1,
    "uid": "ae4b5228b7ff72c9fda778ec",
    "cover": "https://poi-pic-gz.cdn.bcebos.com/pic_afd61b6a9c576db2484adaad5b32e531.jpeg",
    "photo_list": [
      "https://poi-pic-gz.cdn.bcebos.com/pic_afd61b6a9c576db2484adaad5b32e531.jpeg"
    ]
  },
  {
    "name": "怀柔区雁栖消防救援站",
    "location": {
      "lat": 40.377176,
      "lng": 116.689954
    },
    "address": "北京市怀柔区杨雁路北京市公安局怀柔分局雁栖开发区派出所西南侧约130米",
    "province": "北京市",
    "city": "北京市",
    "area": "怀柔区",
    "detail": 1,
    "uid": "6796ed07d57962f9b726550d",
    "cover": "https://pic-map.cdn.bcebos.com/img/daba417c2c351b6cdf0c3162640eea7c",
    "photo_list": [
      "https://pic-map.cdn.bcebos.com/img/daba417c2c351b6cdf0c3162640eea7c"
    ]
  }
]