[
  {
    "name": "北京极速达汽车救援有限公司",
    "location": {
      "lat": 40.176143,
      "lng": 116.252696
    },
    "address": "北京市昌平区百葛桥北极星幼儿园(沙屯路)西北侧约220米",
    "province": "北京市",
    "city": "北京市",
    "area": "昌平区",
    "telephone": "15901479789",
    "detail": 1,
    "uid": "8cb458d82f26f629a1a93481",
    "cover": "https://lbsugc.cdn.bcebos.com/images/d1803fbd01690b5e3328cd05a9cf6326_1340.jpeg",
    "photo_list": [
      "https://lbsugc.cdn.bcebos.com/images/d1803fbd01690b5e3328cd05a9cf6326_1340.jpeg",
      "https://lbsugc.cdn.bcebos.com/images/745055ae7a78d030b77c7d22a2dd85e3_1391.jpeg",
      "https://lbsugc.cdn.bcebos.com/images/5fe251962920cc60b6d75229ed5af875_1655.jpeg",
      "https://lbsugc.cdn.bcebos.com/images/de663a108943bd2c64d324a7366afcbd_6197.jpeg",
      "https://poi-pic-gz.cdn.bcebos.com/pic_250532c28f6aa6ca9429ff390730eeb5.jpeg",
      "https://lbsugc.cdn.bcebos.com/images/B6051f389276385eb5.jpeg"
    ]
  },
  {
    "name": "兴隆补胎送油搭电拖车救援",
    "location": {
      "lat": 39.866399,
      "lng": 116.474375
    },
    "address": "北京市朝阳区大羊坊路东盈苑小区",
    "province": "北京市",
    "city": "北京市",
    "area": "朝阳区",
    "telephone": "13275529017",
    "detail": 1,
    "uid": "2040b1b5b40afa3ac13644a9",
    "cover": "https://poi-pic-gz.cdn.bcebos.com/pic_8371947659e160d6c86d64b4d8cfb4be.jpeg",
    "photo_list": [
      "https://poi-pic-gz.cdn.bcebos.com/pic_8371947659e160d6c86d64b4d8cfb4be.jpeg",
      "https://poi-pic-gz.cdn.bcebos.com/pic_6998a24009e8878ba4eb7ca7d7b3018a.jpeg"
    ]
  },
  {
    "name": "北京刘涛新业配件销售有限公司(轮胎四轮定位补胎机油救援快修)",
    "location": {
      "lat": 40.096819,
      "lng": 116.309289
    },
    "address": "龙泽园街道北农路史各庄消防救援站南边大院",
    "province": "北京市",
    "city": "北京市",
    "area": "昌平区",
    "telephone": "13141482967,13611343637",
    "detail": 1,
    "uid": "59dd8daf8109cba59d95deaf",
    "cover": "https://photo-meituan.cdn.bcebos.com/photo/17334428696c944b86b47b222bbc6b9f67f7599e86",
    "photo_list": [
      "https://photo-meituan.cdn.bcebos.com/photo/17334428696c944b86b47b222bbc6b9f67f7599e86",
      "https://poi-pic-gz.cdn.bcebos.com/pic_e4b0afeb8b183c7a835bfdfe8fee4b9b.jpeg",
      "https://poi-pic-gz.cdn.bcebos.com/pic_f32fd4766b5dcfd9fcfa9ce5fc0567a6.jpeg",
      "https://lbsugc.cdn.bcebos.com/images/B67500b28635bcb100.jpeg"
    ]
  },
  {
    "name": "昌平区小汤山消防救援站",
    "location": {
      "lat": 40.18092,
      "lng": 116.408292
    },
    "address": "北京市昌平区小汤山镇顺沙路78号",
    "province": "北京市",
    "city": "北京市",
    "area": "昌平区",
    "detail": 1,
    "uid": "4d8af14616fd9bb53010af7a",
    "cover": "https://poi-pic-gz.cdn.bcebos.com/pic_d7e14a1699750cafcf7abfa7edbb188a.jpeg",
    "photo_list": [
      "https://poi-pic-gz.cdn.bcebos.com/pic_d7e14a1699750cafcf7abfa7edbb188a.jpeg",
      "https://poi-pic-gz.cdn.bcebos.com/pic_ae30f63efaedb2abbf0346286a69d22a.jpeg",
      "https://poi-pic-gz.cdn.bcebos.com/pic_49ba89f133a13d5b3244fadd0c339d95.jpg",
      "https://poi-pic-gz.cdn.bcebos.com/pic_f02bf69bb443136cf4172d43c2cff666.jpg",
      "https://poi-pic-gz.cdn.bcebos.com/pic_2d111ccc0460528de4528b8ceeea6953.jpg"
    ]
  },
  {
    "name": "轮胎专卖补胎救援",
    "location": {
      "lat": 40.218117,
      "lng": 116.759516
    },
    "address": "北京市顺义区昌金路与李魏路交叉路口西南侧",
    "province": "北京市",
    "city": "北京市",
    "area": "顺义区",
    "telephone": "15321838818",
    "detail": 1,
    "uid": "772de384690bed79353a715e",
    "cover": "https://lbsugc.cdn.bcebos.com/images/a4ecbdfb95827de7c5cfaf3f372c282e_2138.jpeg",
    "photo_list": [
      "https://lbsugc.cdn.bcebos.com/images/a4ecbdfb95827de7c5cfaf3f372c282e_2138.jpeg",
      "https://lbsugc.cdn.bcebos.com/images/22cf74b2bcfa2bc2e8fecd9d30373962_3231.jpeg",
      "https://lbsugc.cdn.bcebos.com/images/d2a7d2790cbba3faa92e8ad2a663d831_3832.jpeg",
      "https://lbsugc.cdn.bcebos.com/images/a28df46eb0af32c8e515c703f6d8c0e5_4524.jpeg",
      "https://lbsugc.cdn.bcebos.com/images/4a10182ab10b1bcfb9df5865e20ba73d_3485.jpeg",
      "https://pic-map.cdn.bcebos.com/img/00efc73d9705a1e296e0416586cec3f6"
    ]
  },
  {
    "name": "志勇汽修道路救援",
    "location": {
      "lat": 40.181499,
      "lng": 116.386835
    },
    "address": "秦尚路与顺沙路交叉路口西北侧",
    "province": "北京市",
    "city": "北京市",
    "area": "昌平区",
    "street_id": "0f514904195b42252911d105",
    "telephone": "13241298929",
    "detail": 1,
    "uid": "0f514904195b42252911d105",
    "cover": "https://taojin-his.cdn.bcebos.com/09fa513d269759ee793bb41cbcfb43166c22dffa.jpg",
    "photo_list": [
      "https://mapsv0.bdimg.com/?qt=pr3dpoi&uid=0f514904195b42252911d105&width=720&height=360&quality=80&fovx=120",
      "https://poi-pic-gz.cdn.bcebos.com/pic_4b34166de4c82f53bef7efd2f902cbb3.jpeg",
      "https://poi-pic-gz.cdn.bcebos.com/pic_e77233bdc240f2137a6d632662c99f2c.jpeg",
      "https://poi-pic-gz.cdn.bcebos.com/pic_f5cfac48502c2e99168a865048a06f76.jpeg",
      "https://poi-pic-gz.cdn.bcebos.com/pic_38854e8140fd49aeb7fd09ba1ae04b02.jpg",
      "https://poi-pic-gz.cdn.bcebos.com/pic_04a2627ad1025fd38f3d4cc649121768.jpg"
    ]
  },
  {
    "name": "中国消防救援",
    "location": {
      "lat": 40.080475,
      "lng": 116.307481
    },
    "address": "北京市昌平区二拨子工业园区西路二拨子新村",
    "province": "北京市",
    "city": "北京市",
    "area": "昌平区",
    "detail": 1,
    "uid": "66f6945427a48b0a88f15da9",
    "cover": "https://pic-map.cdn.bcebos.com/img/8fbd5a4b7895eb5f61efacf9bd8746d2",
    "photo_list": [
      "https://pic-map.cdn.bcebos.com/img/8fbd5a4b7895eb5f61efacf9bd8746d2"
    ]
  },
  {
    "name": "桑奥捷汽修救援",
    "location": {
      "lat": 40.247192,
      "lng": 116.144228
    },
    "address": "东大街16号院",
    "province": "北京市",
    "city": "北京市",
    "area": "昌平区",
    "street_id": "320912453098dc35a7c756ab",
    "telephone": "18888848728",
    "detail": 1,
    "uid": "320912453098dc35a7c756ab",
    "cover": "https://lbsugc.cdn.bcebos.com/images/B5f1a64f97dd832a1d.jpeg",
    "photo_list": [
      "https://mapsv0.bdimg.com/?qt=pr3dpoi&uid=320912453098dc35a7c756ab&width=720&height=360&quality=80&fovx=120",
      "https://taojin-his.cdn.bcebos.com/dc54564e9258d1096b572369df58ccbf6d814db1.jpg",
      "https://poi-pic-gz.cdn.bcebos.com/pic_17dca294229f67b7c72aadd22073d53c.jpg",
      "https://poi-pic-gz.cdn.bcebos.com/pic_7d7e3f8c5511f9bc7115905fca48d8a3.jpeg",
      "https://poi-pic-gz.cdn.bcebos.com/pic_4150783399a14e6dd4e31af5a7acf4e5.jpg",
      "https://poi-pic-gz.cdn.bcebos.com/pic_d4223446e4914191c7d66a9894336ba6.jpg"
    ]
  }
]