[
  {
    "name": "凉山州松友汽车救援服务有限公司",
    "location": {
      "lat": 27.874432,
      "lng": 102.228809
    },
    "address": "凉山彝族自治州西昌市G348阳光路苑三期西南侧约210米",
    "province": "四川省",
    "city": "凉山彝族自治州",
    "area": "西昌市",
    "detail": 1,
    "uid": "e9dcf83d8a71113b250bd0cf",
    "cover": "https://poi-pic-gz.cdn.bcebos.com/pic_f636f5298fc4fd2c7633308c904583a6.jpeg",
    "photo_list": [
      "https://poi-pic-gz.cdn.bcebos.com/pic_f636f5298fc4fd2c7633308c904583a6.jpeg",
      "https://poi-pic-gz.cdn.bcebos.com/pic_8db025664dfd90ae716d370ede590d65.jpeg",
      "https://poi-pic-gz.cdn.bcebos.com/pic_4510dfd33faa88da05742dc9da3346ea.jpeg",
      "https://poi-pic-gz.cdn.bcebos.com/pic_0ba16476b2a90c25f710a211f189900d.jpeg",
      "https://poi-pic-gz.cdn.bcebos.com/pic_bc741d4ca6c763edbf254257e2cc3421.jpeg"
    ]
  },
  {
    "name": "凉山州友杰汽车救援有限公司",
    "location": {
      "lat": 27.915912,
      "lng": 102.22398
    },
    "address": "四川省凉山彝族自治州西昌市一环路北五段",
    "province": "四川省",
    "city": "凉山彝族自治州",
    "area": "西昌市",
    "detail": 1,
    "uid": "a98879b7d70f8234621c67bd",
    "cover": "https://poi-pic-gz.cdn.bcebos.com/pic_a7c2d172e2c68b68478d55eb00c09603.jpeg",
    "photo_list": [
      "https://poi-pic-gz.cdn.bcebos.com/pic_a7c2d172e2c68b68478d55eb00c09603.jpeg"
    ]
  },
  {
    "name": "凉山州松友汽车救援服务有限公司",
    "location": {
      "lat": 28.277786,
      "lng": 103.595426
    },
    "address": "凉山彝族自治州雷波县G353中国石油雷波溪洛渡加油站(白龙村)东北侧约150米",
    "province": "四川省",
    "city": "凉山彝族自治州",
    "area": "雷波县",
    "telephone": "13981551884,18011089296,18781557995",
    "detail": 1,
    "uid": "6626c4c78153443fc4f50d50",
    "cover": "https://poi-pic-gz.cdn.bcebos.com/pic_a17b01133e8c69072806867f307bd354.jpeg",
    "photo_list": [
      "https://poi-pic-gz.cdn.bcebos.com/pic_a17b01133e8c69072806867f307bd354.jpeg"
    ]
  },
  {
    "name": "曼特养车·道路救援",
    "location": {
      "lat": 27.872781,
      "lng": 102.258886
    },
    "address": "四川省凉山彝族自治州西昌市G348(南山大道)",
    "province": "四川省",
    "city": "凉山彝族自治州",
    "area": "西昌市",
    "telephone": "15881533541",
    "detail": 1,
    "uid": "c7c81ceb69cc334ba20464b6",
    "cover": "https://poi-pic-gz.cdn.bcebos.com/pic_157e146e4a6155866e9ab4f495db4c76.jpeg",
    "photo_list": [
      "https://poi-pic-gz.cdn.bcebos.com/pic_157e146e4a6155866e9ab4f495db4c76.jpeg",
      "https://lbsugc.cdn.bcebos.com/images/B62a98035c1b43cafa.jpeg",
      "https://lbsugc.cdn.bcebos.com/images/B62a9804090206df90.jpeg",
      "https://lbsugc.cdn.bcebos.com/images/B62a9803c6e14011602.jpeg",
      "https://poi-pic-gz.cdn.bcebos.com/pic_7cf8590852294e5af24504eb7e432deb.jpeg",
      "https://lbsugc.cdn.bcebos.com/images/B65a9519ca38a45e3b.jpeg"
    ]
  },
  {
    "name": "西昌市福利路消防救援站",
    "location": {
      "lat": 27.890736,
      "lng": 102.293924
    },
    "address": "四川省凉山彝族自治州西昌市福利路4号",
    "province": "四川省",
    "city": "凉山彝族自治州",
    "area": "西昌市",
    "detail": 1,
    "uid": "d5eab13c6a414597d13ce3b8",
    "cover": "https://poi-pic-gz.cdn.bcebos.com/pic_fe7b13f6f3de8ba6945a12c40f17e25f.jpeg",
    "photo_list": [
      "https://poi-pic-gz.cdn.bcebos.com/pic_fe7b13f6f3de8ba6945a12c40f17e25f.jpeg"
    ]
  },
  {
    "name": "布拖县消防救援大队",
    "location": {
      "lat": 27.709941,
      "lng": 102.827268
    },
    "address": "四川省凉山彝族自治州布拖县Y002",
    "province": "四川省",
    "city": "凉山彝族自治州",
    "area": "布拖县",
    "detail": 1,
    "uid": "5300652201a4be2ff1193793",
    "cover": "https://lbsugc.cdn.bcebos.com/images/B60c9d66a47e9e58e4.jpeg",
    "photo_list": [
      "https://lbsugc.cdn.bcebos.com/images/B60c9d66a47e9e58e4.jpeg",
      "https://lbsugc.cdn.bcebos.com/images/B60c9d6754bd626254.jpeg",
      "https://poi-pic-gz.cdn.bcebos.com/pic_acc27e77c5a1afb589b96886835d3d40.jpeg"
    ]
  },
  {
    "name": "冕宁县消防救援大队",
    "location": {
      "lat": 28.556735,
      "lng": 102.178766
    },
    "address": "四川凉山州冕宁县皂角巷18号",
    "province": "四川省",
    "city": "凉山彝族自治州",
    "area": "冕宁县",
    "detail": 1,
    "uid": "a1c68a6e452a3ec7aa0dd8be",
    "cover": "https://poi-pic-gz.cdn.bcebos.com/pic_051e2d8b6aefea99b314e5fa905b9b31.jpeg",
    "photo_list": [
      "https://poi-pic-gz.cdn.bcebos.com/pic_051e2d8b6aefea99b314e5fa905b9b31.jpeg"
    ]
  }
]