[
  {
    "name": "天津市救援拖运有限公司",
    "location": {
      "lat": 39.045352,
      "lng": 117.639557
    },
    "address": "天津市滨海新区塘黄路翔鹤园西侧约50米",
    "province": "天津市",
    "city": "天津市",
    "area": "滨海新区",
    "detail": 1,
    "uid": "4dd8df6233fd0450ad31e553",
    "cover": "https://poi-pic-gz.cdn.bcebos.com/pic_488c0670056dbfb373c65169969440e9.jpeg",
    "photo_list": [
      "https://poi-pic-gz.cdn.bcebos.com/pic_488c0670056dbfb373c65169969440e9.jpeg"
    ]
  },
  {
    "name": "斌子救援报废车回收",
    "location": {
      "lat": 39.708233,
      "lng": 117.458062
    },
    "address": "天津市宝坻区方家庄镇塔庄村",
    "province": "天津市",
    "city": "天津市",
    "area": "宝坻区",
    "detail": 1,
    "uid": "7af92c61f45c4981a6da391a",
    "cover": "https://lbsugc.cdn.bcebos.com/images/B6115d1456f3fb1584a.jpeg",
    "photo_list": [
      "https://lbsugc.cdn.bcebos.com/images/B6115d1456f3fb1584a.jpeg"
    ]
  },
  {
    "name": "重汽修理外出救援",
    "location": {
      "lat": 39.811709,
      "lng": 117.280712
    },
    "address": "天津市宝坻区平宝线",
    "province": "天津市",
    "city": "天津市",
    "area": "宝坻区",
    "detail": 1,
    "uid": "0c0acfdd5222cb601d1d113f",
    "cover": "https://lbsugc.cdn.bcebos.com/images/B65d81c34b3489178c4.jpeg",
    "photo_list": [
      "https://lbsugc.cdn.bcebos.com/images/B65d81c34b3489178c4.jpeg",
      "https://lbsugc.cdn.bcebos.com/images/B65d81c349a667e715.jpeg"
    ]
  },
  {
    "name": "宝坻区东城北路消防救援站",
    "location": {
      "lat": 39.741831,
      "lng": 117.320083
    },
    "address": "天津市宝坻区东城北路",
    "province": "天津市",
    "city": "天津市",
    "area": "宝坻区",
    "street_id": "3f604a66d8989fce00ec018e",
    "detail": 1,
    "uid": "3f604a66d8989fce00ec018e",
    "cover": "https://poi-pic-gz.cdn.bcebos.com/pic_f45e08cc5ffb5a5a112bc7a9e0bf3f27.jpeg",
    "photo_list": [
      "https://mapsv0.bdimg.com/?qt=pr3dpoi&uid=3f604a66d8989fce00ec018e&width=720&height=360&quality=80&fovx=120",
      "https://poi-pic-gz.cdn.bcebos.com/pic_eb889172f51e3cfb32b2c5ffbead0845.jpg",
      "https://poi-pic-gz.cdn.bcebos.com/pic_9927fb1ad0f96d43956c90eb95037b87.jpg",
      "https://poi-pic.cdn.bcebos.com/eb889172f51e3cfb32b2c5ffbead0845.jpg",
      "https://poi-pic-gz.cdn.bcebos.com/pic_394f4750da1dbe9f3e26e87eb2e99e9c.jpeg",
      "https://poi-pic-gz.cdn.bcebos.com/pic_78ca03509f05bc8f6498f76b8b9e0c3f.jpeg"
    ]
  }
]