[
  {
    "name": "天津市救援拖运有限公司",
    "location": {
      "lat": 39.045352,
      "lng": 117.639557
    },
    "address": "天津市滨海新区塘黄路翔鹤园西侧约50米",
    "province": "天津市",
    "city": "天津市",
    "area": "滨海新区",
    "detail": 1,
    "uid": "4dd8df6233fd0450ad31e553",
    "cover": "https://poi-pic-gz.cdn.bcebos.com/pic_488c0670056dbfb373c65169969440e9.jpeg",
    "photo_list": [
      "https://poi-pic-gz.cdn.bcebos.com/pic_488c0670056dbfb373c65169969440e9.jpeg"
    ]
  },
  {
    "name": "补胎换胎救援",
    "location": {
      "lat": 39.485325,
      "lng": 116.981809
    },
    "address": "天津市武清区大东线",
    "province": "天津市",
    "city": "天津市",
    "area": "武清区",
    "telephone": "18656256462",
    "detail": 1,
    "uid": "9757fc59b4739919f50e7705",
    "cover": "https://taojin-his.cdn.bcebos.com/42166d224f4a20a499db44519e529822730ed05b.jpg",
    "photo_list": [
      "https://taojin-his.cdn.bcebos.com/42166d224f4a20a499db44519e529822730ed05b.jpg",
      "https://lbsugc.cdn.bcebos.com/images/B65d4531cadfdd12b91.jpeg"
    ]
  },
  {
    "name": "武清区泗村店消防救援站",
    "location": {
      "lat": 39.495656,
      "lng": 116.960856
    },
    "address": "天津市武清区泗村店镇龙河道",
    "province": "天津市",
    "city": "天津市",
    "area": "武清区",
    "detail": 1,
    "uid": "eab31de5cbda9680593ac8d6",
    "cover": "https://poi-pic-gz.cdn.bcebos.com/pic_83c5f1d651c5365230fbf26bf9b5bfd5.jpeg",
    "photo_list": [
      "https://poi-pic-gz.cdn.bcebos.com/pic_83c5f1d651c5365230fbf26bf9b5bfd5.jpeg"
    ]
  },
  {
    "name": "轮胎批发救援补胎",
    "location": {
      "lat": 39.560574,
      "lng": 117.226881
    },
    "address": "S101(津围线)",
    "province": "天津市",
    "city": "天津市",
    "area": "武清区",
    "telephone": "18656256462",
    "detail": 1,
    "uid": "41ccd320f81c232229fc48c9",
    "cover": "https://poi-pic-gz.cdn.bcebos.com/pic_e426b1972baf30341dd81ee02eb2a5f7.jpg",
    "photo_list": [
      "https://poi-pic-gz.cdn.bcebos.com/pic_e426b1972baf30341dd81ee02eb2a5f7.jpg",
      "https://poi-pic-gz.cdn.bcebos.com/pic_4f679addf46c60c03abb9e2e6b3ead24.jpeg"
    ]
  },
  {
    "name": "捷远汽修补胎救援",
    "location": {
      "lat": 39.373463,
      "lng": 117.137024
    },
    "address": "天津市武清区S308(北杨线)",
    "province": "天津市",
    "city": "天津市",
    "area": "武清区",
    "telephone": "18702239444,18722217773",
    "detail": 1,
    "uid": "9d290f1e6996d4d0d0ff23ca",
    "cover": "https://pic-map.cdn.bcebos.com/img/deacc17edd883efda3698035f047d246",
    "photo_list": [
      "https://pic-map.cdn.bcebos.com/img/deacc17edd883efda3698035f047d246",
      "https://lbsugc.cdn.bcebos.com/images/B662391ad9140b1776e.jpeg"
    ]
  }
]