[
  {
    "name": "天津市救援拖运有限公司",
    "location": {
      "lat": 39.045352,
      "lng": 117.639557
    },
    "address": "天津市滨海新区塘黄路翔鹤园西侧约50米",
    "province": "天津市",
    "city": "天津市",
    "area": "滨海新区",
    "detail": 1,
    "uid": "4dd8df6233fd0450ad31e553",
    "cover": "https://poi-pic-gz.cdn.bcebos.com/pic_488c0670056dbfb373c65169969440e9.jpeg",
    "photo_list": [
      "https://poi-pic-gz.cdn.bcebos.com/pic_488c0670056dbfb373c65169969440e9.jpeg"
    ]
  },
  {
    "name": "宁河区光明路消防救援站",
    "location": {
      "lat": 39.334447,
      "lng": 117.842087
    },
    "address": "天津市宁河区光明路天骄慧宇幼儿园西侧约140米",
    "province": "天津市",
    "city": "天津市",
    "area": "宁河区",
    "street_id": "ff87125ee1543fa8c91b9595",
    "detail": 1,
    "uid": "ff87125ee1543fa8c91b9595",
    "cover": "https://poi-pic-gz.cdn.bcebos.com/pic_a4ca5785cbf3dc48b72039b59184b750.jpeg",
    "photo_list": [
      "https://mapsv0.bdimg.com/?qt=pr3dpoi&uid=ff87125ee1543fa8c91b9595&width=720&height=360&quality=80&fovx=120",
      "https://poi-pic-gz.cdn.bcebos.com/pic_1e85583325526da2368911397910a1e6.jpeg"
    ]
  },
  {
    "name": "宁河区消防救援支队",
    "location": {
      "lat": 39.339103,
      "lng": 117.803908
    },
    "address": "天津市宁河区小崔路与绿荫西路交叉口",
    "province": "天津市",
    "city": "天津市",
    "area": "宁河区",
    "street_id": "19508ed1465a1f7cfbf0cbd5",
    "detail": 1,
    "uid": "19508ed1465a1f7cfbf0cbd5",
    "cover": "https://poi-pic-gz.cdn.bcebos.com/pic_a90e2508a91652d298a0b167616aca3f.jpg",
    "photo_list": [
      "https://mapsv0.bdimg.com/?qt=pr3dpoi&uid=19508ed1465a1f7cfbf0cbd5&width=720&height=360&quality=80&fovx=120",
      "https://poi-pic-gz.cdn.bcebos.com/pic_16a9079febdfb492a4558fa264593ac8.jpeg"
    ]
  }
]