[
  {
    "name": "青铜峡市工业园区消防救援站",
    "location": {
      "lat": 37.909237,
      "lng": 105.899866
    },
    "address": "宁夏回族自治区吴忠市青铜峡市",
    "province": "宁夏回族自治区",
    "city": "吴忠市",
    "area": "青铜峡市",
    "detail": 1,
    "uid": "3db9f356193570640c0e6b54",
    "cover": "https://poi-pic-gz.cdn.bcebos.com/pic_44f7c1730fd0b679ee2ecfea5fe3d279.jpeg",
    "photo_list": [
      "https://poi-pic-gz.cdn.bcebos.com/pic_44f7c1730fd0b679ee2ecfea5fe3d279.jpeg"
    ]
  },
  {
    "name": "拖车救援",
    "location": {
      "lat": 38.030846,
      "lng": 106.070449
    },
    "address": "宁夏回族自治区吴忠市青铜峡市汉坝西街青水园小区",
    "province": "宁夏回族自治区",
    "city": "吴忠市",
    "area": "青铜峡市",
    "telephone": "13139579995,13639553608",
    "detail": 1,
    "uid": "08255a84e319a5ba8bdb73b3",
    "cover": "https://poi-pic-gz.cdn.bcebos.com/pic_3e1efab0e4aa6076be793967dddb8386.jpeg",
    "photo_list": [
      "https://poi-pic-gz.cdn.bcebos.com/pic_3e1efab0e4aa6076be793967dddb8386.jpeg",
      "https://poi-pic-gz.cdn.bcebos.com/pic_c248783a6c3551953b7eed8e3aa8d5ac.jpeg",
      "https://lbsugc.cdn.bcebos.com/images/B6752dbfea1f471113e.jpeg"
    ]
  },
  {
    "name": "同心县消防救援大队",
    "location": {
      "lat": 36.956228,
      "lng": 105.89814
    },
    "address": "宁夏回族自治区吴忠市同心县罗山路",
    "province": "宁夏回族自治区",
    "city": "吴忠市",
    "area": "同心县",
    "detail": 1,
    "uid": "568642fbad1e6bd714a190f0",
    "cover": "https://poi-pic-gz.cdn.bcebos.com/pic_9f9154e92bdd699d7c3ed00f30cf8ce7.jpeg",
    "photo_list": [
      "https://poi-pic-gz.cdn.bcebos.com/pic_9f9154e92bdd699d7c3ed00f30cf8ce7.jpeg"
    ]
  },
  {
    "name": "吴忠市银军运输有限公司",
    "location": {
      "lat": 38.015891,
      "lng": 106.219152
    },
    "address": "宁夏回族自治区吴忠市利通区光耀商贸城3号楼17室",
    "province": "宁夏回族自治区",
    "city": "吴忠市",
    "area": "利通区",
    "telephone": "15379637444",
    "detail": 1,
    "uid": "4f5644d544b101186d20b9d1",
    "cover": "https://poi-pic-gz.cdn.bcebos.com/pic_df2e92cdc41312794d121054e5d9fbbd.jpeg",
    "photo_list": [
      "https://poi-pic-gz.cdn.bcebos.com/pic_df2e92cdc41312794d121054e5d9fbbd.jpeg",
      "https://poi-pic-gz.cdn.bcebos.com/pic_f965a9e582afd5bf73dad031e0fe2d57.jpeg",
      "https://lbsugc.cdn.bcebos.com/images/B6672850e00fa93f98.jpeg"
    ]
  },
  {
    "name": "青铜峡市消防救援大队",
    "location": {
      "lat": 38.020062,
      "lng": 106.075481
    },
    "address": "宁夏回族自治区吴忠市青铜峡市小坝建民南路206号",
    "province": "宁夏回族自治区",
    "city": "吴忠市",
    "area": "青铜峡市",
    "detail": 1,
    "uid": "2f7f3d0e78f847939a005092",
    "cover": "https://poi-pic-gz.cdn.bcebos.com/pic_4ee27fe1895209b60ecd270fb64fab81.jpeg",
    "photo_list": [
      "https://poi-pic-gz.cdn.bcebos.com/pic_4ee27fe1895209b60ecd270fb64fab81.jpeg"
    ]
  },
  {
    "name": "硕力广告",
    "location": {
      "lat": 37.996812,
      "lng": 106.189196
    },
    "address": "宁夏回族自治区吴忠市利通区吴灵西路534号",
    "province": "宁夏回族自治区",
    "city": "吴忠市",
    "area": "利通区",
    "telephone": "17795371177",
    "detail": 1,
    "uid": "0740eb6cd87a2266250bd04d",
    "cover": "https://taojin-his.cdn.bcebos.com/b03533fa828ba61e350df54a4d34970a314e59f7.jpg",
    "photo_list": [
      "https://taojin-his.cdn.bcebos.com/b03533fa828ba61e350df54a4d34970a314e59f7.jpg",
      "https://lbsugc.cdn.bcebos.com/images/H503d269759ee3d6d3d7d72584f166d224e4adeee.jpg",
      "https://poi-pic-gz.cdn.bcebos.com/pic_dff6c1bae74aecff9936f14700f5c115.jpeg",
      "https://poi-pic-gz.cdn.bcebos.com/pic_e86e9cc9d2a5b94cf9b98e87f3af4644.jpeg",
      "https://poi-pic-gz.cdn.bcebos.com/pic_2b3a0c5099f29f32b65a6131ec62f600.jpeg",
      "https://poi-pic-gz.cdn.bcebos.com/pic_ea0c2e8a394bf4c36ac9bdf7a6af351d.jpg"
    ]
  }
]