[
  {
    "name": "德州市安联汽车救援服务有限公司",
    "location": {
      "lat": 37.457653,
      "lng": 116.374924
    },
    "address": "德州市德城区金华街北京博苑幼儿园北侧约200米",
    "province": "山东省",
    "city": "德州市",
    "area": "德城区",
    "telephone": "18705342222",
    "detail": 1,
    "uid": "4d1668a7e588c874dbeced7a",
    "cover": "https://poi-pic-gz.cdn.bcebos.com/pic_c03b4c2d4777c7c7754f7268eae2302f.jpg",
    "photo_list": [
      "https://poi-pic-gz.cdn.bcebos.com/pic_c03b4c2d4777c7c7754f7268eae2302f.jpg",
      "https://lbsugc.cdn.bcebos.com/images/H279759ee3d6d55fbf0a9a6e563224f4a21a4dd82.jpg",
      "https://lbsugc.cdn.bcebos.com/images/Hd1a20cf431adcbefd45488c1a2af2edda2cc9f91.jpg",
      "https://lbsugc.cdn.bcebos.com/images/H09fa513d269759ee5f1b960cbcfb43166c22dfaa.jpg",
      "https://poi-pic-gz.cdn.bcebos.com/pic_88d84e269a1ddaa28a4cdb06de38d3ad.jpg",
      "https://poi-pic-gz.cdn.bcebos.com/pic_04017a1f92b7e52b7b46f097f1e32b9c.jpeg"
    ]
  },
  {
    "name": "尹记流动补胎车辆救援",
    "location": {
      "lat": 36.918791,
      "lng": 116.628606
    },
    "address": "德州市禹城市G514金色家园西南侧约240米",
    "province": "山东省",
    "city": "德州市",
    "area": "禹城市",
    "telephone": "13639491267,13869256550",
    "detail": 1,
    "uid": "0d2917d054ab5a3941d63e71",
    "cover": "https://poi-pic-gz.cdn.bcebos.com/pic_f4e9bdd7527841fb4162ac6f032f1e8d.jpeg",
    "photo_list": [
      "https://poi-pic-gz.cdn.bcebos.com/pic_f4e9bdd7527841fb4162ac6f032f1e8d.jpeg"
    ]
  },
  {
    "name": "洪亮维修配件轮胎救援",
    "location": {
      "lat": 36.880832,
      "lng": 116.658895
    },
    "address": "山东省德州市禹城市G514",
    "province": "山东省",
    "city": "德州市",
    "area": "禹城市",
    "telephone": "15253405234",
    "detail": 1,
    "uid": "d5a340feb21faa2448cc4a94",
    "cover": "https://lbsugc.cdn.bcebos.com/images/B66b249b6e821a56c0.jpeg",
    "photo_list": [
      "https://lbsugc.cdn.bcebos.com/images/B66b249b6e821a56c0.jpeg",
      "https://pic-map.cdn.bcebos.com/img/0e927904b343d8fa568b210aaa391363"
    ]
  },
  {
    "name": "齐河县顺安交通救援有限公司",
    "location": {
      "lat": 36.702254,
      "lng": 116.724935
    },
    "address": "101省道",
    "province": "山东省",
    "city": "德州市",
    "area": "齐河县",
    "street_id": "15d8bd2bb47ddcd3465726e8",
    "detail": 1,
    "uid": "15d8bd2bb47ddcd3465726e8",
    "cover": "https://lbsugc.cdn.bcebos.com/images/B66e1418655f1616f50.jpeg",
    "photo_list": [
      "https://mapsv0.bdimg.com/?qt=pr3dpoi&uid=15d8bd2bb47ddcd3465726e8&width=720&height=360&quality=80&fovx=120",
      "https://lbsugc.cdn.bcebos.com/images/B66e1418667c39a563.jpeg"
    ]
  },
  {
    "name": "利达拖车救援",
    "location": {
      "lat": 37.202143,
      "lng": 116.091646
    },
    "address": "山东省德州市武城县S254(历亭路)",
    "province": "山东省",
    "city": "德州市",
    "area": "武城县",
    "telephone": "18653425986",
    "detail": 1,
    "uid": "9441a90cc64478ac4051c0fa",
    "cover": "https://lbsugc.cdn.bcebos.com/images/B65f2687cc11d117da8.jpeg",
    "photo_list": [
      "https://lbsugc.cdn.bcebos.com/images/B65f2687cc11d117da8.jpeg",
      "https://lbsugc.cdn.bcebos.com/images/B65f2687c6a4bc6850.jpeg",
      "https://pic-map.cdn.bcebos.com/img/bea07e0107f3bce722d4b99988a85cf7",
      "https://lbsugc.cdn.bcebos.com/images/B66209220f0548109ce.jpeg"
    ]
  },
  {
    "name": "中国平安救援集团",
    "location": {
      "lat": 36.94209,
      "lng": 116.646235
    },
    "address": "德州市禹城市人民路禹城市政府东北侧约160米",
    "province": "山东省",
    "city": "德州市",
    "area": "禹城市",
    "telephone": "18353410816",
    "detail": 1,
    "uid": "408127a0c6ff1144d1f49ea7",
    "cover": "https://poi-pic-gz.cdn.bcebos.com/pic_63d103d993a5c140e4171a0f6d68f330.jpeg",
    "photo_list": [
      "https://poi-pic-gz.cdn.bcebos.com/pic_63d103d993a5c140e4171a0f6d68f330.jpeg",
      "https://poi-pic-gz.cdn.bcebos.com/pic_ad5d38c5a3264643703cc51e4f51ed63.jpeg",
      "https://poi-pic-gz.cdn.bcebos.com/pic_0922d405956d498754bcce1a7db0da75.jpeg",
      "https://poi-pic-gz.cdn.bcebos.com/pic_1c502606f629b48f497ccdf35e8f485a.jpeg",
      "https://poi-pic-gz.cdn.bcebos.com/pic_10ec4057bb93c2cd51d2928e749557ae.jpeg",
      "https://lbsugc.cdn.bcebos.com/images/B658fb8131be0989d3.jpeg"
    ]
  },
  {
    "name": "沃达液压机械有限公司",
    "location": {
      "lat": 37.489686,
      "lng": 116.325015
    },
    "address": "山东省德州市德城区德惠大街1199号",
    "province": "山东省",
    "city": "德州市",
    "area": "德城区",
    "street_id": "",
    "telephone": "13375348899",
    "detail": 1,
    "uid": "ca81b6c02ae76ec6b1077d13",
    "cover": "https://lbsugc.cdn.bcebos.com/images/H279759ee3d6d55fbc86feec063224f4a21a4ddaf.jpg",
    "photo_list": [
      "https://lbsugc.cdn.bcebos.com/images/H279759ee3d6d55fbc86feec063224f4a21a4ddaf.jpg",
      "https://poi-pic-gz.cdn.bcebos.com/pic_fb95d9e1b76df259a57d9614c582c443.jpeg"
    ]
  },
  {
    "name": "山东柱子道路救援有限公司",
    "location": {
      "lat": 37.196768,
      "lng": 116.847738
    },
    "address": "德州市临邑县开元大街索通小镇东侧约210米",
    "province": "山东省",
    "city": "德州市",
    "area": "临邑县",
    "street_id": "7e2b3b1875f95884c5effb62",
    "detail": 1,
    "uid": "7e2b3b1875f95884c5effb62",
    "cover": "https://poi-pic-gz.cdn.bcebos.com/pic_ce60856e78910496b65c2df3fb252698.jpg",
    "photo_list": [
      "https://mapsv0.bdimg.com/?qt=pr3dpoi&uid=7e2b3b1875f95884c5effb62&width=720&height=360&quality=80&fovx=120",
      "https://poi-pic-gz.cdn.bcebos.com/pic_729b41d6f66e0de2f04bdbc563f278a8.jpg",
      "https://taojin-pic-bj.cdn.bcebos.com/bos_bj_291dd51403c0a4c3b6404f1811d9781d.jpg",
      "https://poi-pic-gz.cdn.bcebos.com/pic_2931e3148203417c30eaf85e962d6fa5.jpeg"
    ]
  }
]