[
  {
    "name": "消防救援",
    "location": {
      "lat": 24.159481,
      "lng": 107.244066
    },
    "address": "河池市巴马瑶族自治县寿乡大道巴马武周度假酒店西侧约50米",
    "province": "广西壮族自治区",
    "city": "河池市",
    "area": "巴马瑶族自治县",
    "detail": 1,
    "uid": "1dea04ef1df7c7167169d3f4",
    "cover": "https://pic-map.cdn.bcebos.com/img/eb1ad03155ea5fd7b5f389dcb40b7f57",
    "photo_list": [
      "https://pic-map.cdn.bcebos.com/img/eb1ad03155ea5fd7b5f389dcb40b7f57"
    ]
  },
  {
    "name": "消防救援",
    "location": {
      "lat": 24.98101,
      "lng": 108.201798
    },
    "address": "广西壮族自治区河池市环江毛南族自治县B97县道与205省道交叉口南320米",
    "province": "广西壮族自治区",
    "city": "河池市",
    "area": "环江毛南族自治县",
    "detail": 1,
    "uid": "92366a5e5e8e9bee22026269",
    "cover": "https://poi-pic-gz.cdn.bcebos.com/pic_8094f3796fd7f759d17d7dc20e7d95f5.jpg",
    "photo_list": [
      "https://poi-pic-gz.cdn.bcebos.com/pic_8094f3796fd7f759d17d7dc20e7d95f5.jpg",
      "https://poi-pic-gz.cdn.bcebos.com/pic_32f89b6b6bd5481a64d69bd486430e01.jpeg",
      "https://poi-pic-gz.cdn.bcebos.com/pic_457e14ab40006b1669e029da6f89fe92.jpeg",
      "https://poi-pic-gz.cdn.bcebos.com/pic_7ab5cd1306998ec282cd134a3622f160.jpeg",
      "https://lbsugc.cdn.bcebos.com/images/B66933bc9bb9be11e51.jpeg"
    ]
  },
  {
    "name": "河池市宜州区龙江消防救援站",
    "location": {
      "lat": 24.504933,
      "lng": 108.666187
    },
    "address": "河池市宜州区龙江路宜州市人民医院东侧约40米",
    "province": "广西壮族自治区",
    "city": "河池市",
    "area": "宜州区",
    "detail": 1,
    "uid": "bdffa629138d7961e5e965f9",
    "cover": "https://poi-pic-gz.cdn.bcebos.com/pic_837477320d46c30c15816e2c0e768fcf.jpeg",
    "photo_list": [
      "https://poi-pic-gz.cdn.bcebos.com/pic_837477320d46c30c15816e2c0e768fcf.jpeg"
    ]
  },
  {
    "name": "河池矿山救援",
    "location": {
      "lat": 24.715516,
      "lng": 108.166451
    },
    "address": "河池市金城江区金宜一级公路东江镇人民政府东北侧约60米",
    "province": "广西壮族自治区",
    "city": "河池市",
    "area": "金城江区",
    "detail": 1,
    "uid": "918df5701551b32eb13c8109",
    "cover": "https://taojin-his.cdn.bcebos.com/faedab64034f78f0b5d006c672310a55b3191c2f.jpg",
    "photo_list": [
      "https://taojin-his.cdn.bcebos.com/faedab64034f78f0b5d006c672310a55b3191c2f.jpg",
      "https://poi-pic-gz.cdn.bcebos.com/pic_d07f2353c047577368f6c80138c67bf6.jpeg"
    ]
  },
  {
    "name": "车海道路救援服务",
    "location": {
      "lat": 24.515306,
      "lng": 107.383933
    },
    "address": "河池市东兰县五峰路喜洋洋幼儿园西南侧约30米",
    "province": "广西壮族自治区",
    "city": "河池市",
    "area": "东兰县",
    "telephone": "13977829083",
    "detail": 1,
    "uid": "54ee66dfad22c9bf343a714c",
    "cover": "https://taojin-his.cdn.bcebos.com/72f082025aafa40f58bf34d0a464034f78f01945.jpg",
    "photo_list": [
      "https://taojin-his.cdn.bcebos.com/72f082025aafa40f58bf34d0a464034f78f01945.jpg",
      "https://lbsugc.cdn.bcebos.com/images/B5fc53226e7ad9156a7.jpeg",
      "https://lbsugc.cdn.bcebos.com/images/B5fc53226e9660ba3d.jpeg",
      "https://lbsugc.cdn.bcebos.com/images/B5fc53226d08db1448d.jpeg",
      "https://lbsugc.cdn.bcebos.com/images/B5fc53226a8947d8e2.jpeg",
      "https://poi-pic-gz.cdn.bcebos.com/pic_ee44aa39ead56c609af5ea96538a2ea8.jpeg"
    ]
  },
  {
    "name": "汇鑫汽车服务维修中心(民族路店)",
    "location": {
      "lat": 24.132915,
      "lng": 107.271825
    },
    "address": "广西壮族自治区河池市巴马瑶族自治县巴马加油站下来100米24小时道路救援",
    "province": "广西壮族自治区",
    "city": "河池市",
    "area": "巴马瑶族自治县",
    "detail": 1,
    "uid": "8d151ebcbea1c14981a12e81",
    "cover": "https://pic-map.cdn.bcebos.com/img/7b5c336370931d10983ef2b74f0e17d1",
    "photo_list": [
      "https://pic-map.cdn.bcebos.com/img/7b5c336370931d10983ef2b74f0e17d1"
    ]
  },
  {
    "name": "南丹县锡都消防救援站",
    "location": {
      "lat": 24.996187,
      "lng": 107.558487
    },
    "address": "河池市南丹县民行北路中国石化(环北加油站)东北侧约30米",
    "province": "广西壮族自治区",
    "city": "河池市",
    "area": "南丹县",
    "detail": 1,
    "uid": "692a68409e2794f908f5eb82",
    "cover": "https://poi-pic-gz.cdn.bcebos.com/pic_4120ec863da1d7bae76ebc46eaf1cd32.jpeg",
    "photo_list": [
      "https://poi-pic-gz.cdn.bcebos.com/pic_4120ec863da1d7bae76ebc46eaf1cd32.jpeg"
    ]
  }
]