[
  {
    "name": "全诺流动补胎修理救援",
    "location": {
      "lat": 41.19367,
      "lng": 84.224522
    },
    "address": "新疆维吾尔自治区巴音郭楞蒙古自治州轮台县G216(沙漠公路)",
    "province": "新疆维吾尔自治区",
    "city": "巴音郭楞蒙古自治州",
    "area": "轮台县",
    "detail": 1,
    "uid": "de6e4eb858670325d7851f94",
    "cover": "https://lbsugc.cdn.bcebos.com/images/B6469756a38741b38c.jpeg",
    "photo_list": [
      "https://lbsugc.cdn.bcebos.com/images/B6469756a38741b38c.jpeg",
      "https://lbsugc.cdn.bcebos.com/images/B6469756a2f3e517fa9.jpeg"
    ]
  },
  {
    "name": "消防救援",
    "location": {
      "lat": 41.785036,
      "lng": 86.154123
    },
    "address": "巴音郭楞蒙古自治州库尔勒市天山东路永兴大厦东侧约60米",
    "province": "新疆维吾尔自治区",
    "city": "巴音郭楞蒙古自治州",
    "area": "库尔勒市",
    "detail": 1,
    "uid": "5ade16e3e8079ea1f7eafc6c",
    "cover": "https://poi-pic-gz.cdn.bcebos.com/pic_13e7fb4d9ef9776501e1fba4b6c755e4.jpg",
    "photo_list": [
      "https://poi-pic-gz.cdn.bcebos.com/pic_13e7fb4d9ef9776501e1fba4b6c755e4.jpg"
    ]
  },
  {
    "name": "3M汽车隔热膜特约施工中心",
    "location": {
      "lat": 41.727212,
      "lng": 86.220845
    },
    "address": "新疆维吾尔自治区巴音郭楞蒙古自治州库尔勒市巴州公安局交警支队车管所神州汽车城服务大厅西侧140米",
    "province": "新疆维吾尔自治区",
    "city": "巴音郭楞蒙古自治州",
    "area": "库尔勒市",
    "detail": 1,
    "uid": "2584bdb5de25f347581093f1",
    "cover": "https://poi-pic-gz.cdn.bcebos.com/pic_28037ba85e4b91d728be252ab4f3a490.jpeg",
    "photo_list": [
      "https://poi-pic-gz.cdn.bcebos.com/pic_28037ba85e4b91d728be252ab4f3a490.jpeg"
    ]
  },
  {
    "name": "新疆本质油田工程服务有限公司",
    "location": {
      "lat": 41.790655,
      "lng": 84.249733
    },
    "address": "巴音郭楞蒙古自治州轮台县博斯坦路三宝大酒店西北侧约40米",
    "province": "新疆维吾尔自治区",
    "city": "巴音郭楞蒙古自治州",
    "area": "轮台县",
    "telephone": "18899680888",
    "detail": 1,
    "uid": "0a6135d48edf9596f60e7742",
    "cover": "https://poi-pic-gz.cdn.bcebos.com/pic_f7a504961d1d7d1365076009dd387e5d.jpeg",
    "photo_list": [
      "https://poi-pic-gz.cdn.bcebos.com/pic_f7a504961d1d7d1365076009dd387e5d.jpeg",
      "https://poi-pic-gz.cdn.bcebos.com/pic_7a42506ac5ce1c0e7c9f43b0920a8688.jpeg",
      "https://lbsugc.cdn.bcebos.com/images/B666bfd0f74acbfb5b.jpeg",
      "https://lbsugc.cdn.bcebos.com/images/B666bfd0f6e7b851e5.jpeg",
      "https://lbsugc.cdn.bcebos.com/images/B666bfd3feca04fccd.jpeg",
      "https://lbsugc.cdn.bcebos.com/images/B666bfd0f698fe146ce.jpeg"
    ]
  },
  {
    "name": "通顺摩托车培训责任有限公司",
    "location": {
      "lat": 41.790278,
      "lng": 84.228109
    },
    "address": "新疆维吾尔自治区巴音郭楞蒙古自治州轮台县G314(乌红线)",
    "province": "新疆维吾尔自治区",
    "city": "巴音郭楞蒙古自治州",
    "area": "轮台县",
    "telephone": "13119078550",
    "detail": 1,
    "uid": "9a446250782b38bdf4231023",
    "cover": "https://poi-pic-gz.cdn.bcebos.com/pic_2f202278729a45108af8e32c4b18bee2.jpeg",
    "photo_list": [
      "https://poi-pic-gz.cdn.bcebos.com/pic_2f202278729a45108af8e32c4b18bee2.jpeg",
      "https://lbsugc.cdn.bcebos.com/images/B647089020204b8c6f.jpeg",
      "https://lbsugc.cdn.bcebos.com/images/B647088f78ffcb4ee0.jpeg"
    ]
  },
  {
    "name": "消防救援",
    "location": {
      "lat": 42.079412,
      "lng": 86.569183
    },
    "address": "巴音郭楞蒙古自治州焉耆回族自治县G314焉耆客运站西侧约150米",
    "province": "新疆维吾尔自治区",
    "city": "巴音郭楞蒙古自治州",
    "area": "焉耆回族自治县",
    "detail": 1,
    "uid": "07776b02b94d93e80d3dda73",
    "cover": "https://poi-pic-gz.cdn.bcebos.com/pic_e9c9b7d7806941212e2cef46ff958209.jpeg",
    "photo_list": [
      "https://poi-pic-gz.cdn.bcebos.com/pic_e9c9b7d7806941212e2cef46ff958209.jpeg"
    ]
  },
  {
    "name": "库尔勒市团结南路消防救援站",
    "location": {
      "lat": 41.730481,
      "lng": 86.167206
    },
    "address": "巴音郭楞蒙古自治州库尔勒市团结南路兴达佳园北侧约120米",
    "province": "新疆维吾尔自治区",
    "city": "巴音郭楞蒙古自治州",
    "area": "库尔勒市",
    "detail": 1,
    "uid": "8f8e1440e684f642acee7ace",
    "cover": "https://poi-pic-gz.cdn.bcebos.com/pic_b0a0bb9c36d16ace315dba7ac40c688d.jpeg",
    "photo_list": [
      "https://poi-pic-gz.cdn.bcebos.com/pic_b0a0bb9c36d16ace315dba7ac40c688d.jpeg"
    ]
  }
]