[
  {
    "name": "消防装备安全防护用品",
    "location": {
      "lat": 19.751854,
      "lng": 109.217572
    },
    "address": "海南省儋州市吉浦路21号世纪顺通车辆检测中心102",
    "province": "海南省",
    "city": "儋州市",
    "area": "",
    "telephone": "13637617773",
    "detail": 1,
    "uid": "7fe6490dc1a218cf6b49f374",
    "cover": "https://lbsugc.cdn.bcebos.com/images/B66fffb7a2271217c61.jpeg",
    "photo_list": [
      "https://lbsugc.cdn.bcebos.com/images/B66fffb7a2271217c61.jpeg",
      "https://lbsugc.cdn.bcebos.com/images/B63a56e5dd0edf8d9c.jpeg",
      "https://lbsugc.cdn.bcebos.com/images/B63a56e5da9280395d.jpeg",
      "https://lbsugc.cdn.bcebos.com/images/B63a56e5d7b58fb77c.jpeg",
      "https://lbsugc.cdn.bcebos.com/images/B63a56e5d2826146bf.jpeg",
      "https://poi-pic-gz.cdn.bcebos.com/pic_8d3ca1049baab1dc1a80549733a67a7f.jpeg"
    ]
  },
  {
    "name": "儋州市消防救援支队中兴大道特勤站",
    "location": {
      "lat": 19.527702,
      "lng": 109.619773
    },
    "address": "儋州市中兴大街儋州市体育中心南侧约110米",
    "province": "海南省",
    "city": "儋州市",
    "area": "",
    "detail": 1,
    "uid": "6cb01c627c72b9905810932c",
    "cover": "https://poi-pic-gz.cdn.bcebos.com/pic_936f134139c188adb644050b957c2f07.jpeg",
    "photo_list": [
      "https://poi-pic-gz.cdn.bcebos.com/pic_936f134139c188adb644050b957c2f07.jpeg"
    ]
  },
  {
    "name": "儋州滨海新区消防救援大队",
    "location": {
      "lat": 19.68539,
      "lng": 109.232893
    },
    "address": "儋州市中心大道吉报海花盛景东南侧约110米",
    "province": "海南省",
    "city": "儋州市",
    "area": "",
    "detail": 1,
    "uid": "0d0870bf8bfc0065100daa51",
    "cover": "https://poi-pic-gz.cdn.bcebos.com/pic_46d1702f63cf06ea55e55586d767be1d.jpeg",
    "photo_list": [
      "https://poi-pic-gz.cdn.bcebos.com/pic_46d1702f63cf06ea55e55586d767be1d.jpeg"
    ]
  },
  {
    "name": "台铃三轮车",
    "location": {
      "lat": 19.516889,
      "lng": 109.591118
    },
    "address": "海南省儋州市人民东路21号",
    "province": "海南省",
    "city": "儋州市",
    "area": "",
    "telephone": "13807579559",
    "detail": 1,
    "uid": "90b1fdfcbd3a9c7fca09f001",
    "cover": "https://poi-pic-gz.cdn.bcebos.com/pic_7fb530ce2ecd4f39d77b1eabc4e3d9d3.jpeg",
    "photo_list": [
      "https://poi-pic-gz.cdn.bcebos.com/pic_7fb530ce2ecd4f39d77b1eabc4e3d9d3.jpeg",
      "https://poi-pic-gz.cdn.bcebos.com/pic_59274723a60531d797f3e53a3c920376.jpeg",
      "https://poi-pic-gz.cdn.bcebos.com/pic_612a78b26d81a49a377ef55c4706f954.jpg",
      "https://poi-pic-gz.cdn.bcebos.com/pic_f76a00f2d3efa613562e9922a09fa4cc.jpeg",
      "https://poi-pic-gz.cdn.bcebos.com/pic_bd2c1d7153fe585a86ae1c08f9deab84.jpeg",
      "https://poi-pic-gz.cdn.bcebos.com/pic_02ecfd4ae311dcd94c4ce3ba5d5e3182.jpeg"
    ]
  },
  {
    "name": "海南汉地专职消防救援站",
    "location": {
      "lat": 19.771381,
      "lng": 109.205398
    },
    "address": "儋州市滨海大道与洋浦大道交叉路口往西约170米",
    "province": "海南省",
    "city": "儋州市",
    "area": "",
    "detail": 1,
    "uid": "aee4a02d40e71da2adb22a9e",
    "cover": "https://lbsugc.cdn.bcebos.com/images/B622435b4c0b97102af.jpeg",
    "photo_list": [
      "https://lbsugc.cdn.bcebos.com/images/B622435b4c0b97102af.jpeg",
      "https://poi-pic-gz.cdn.bcebos.com/pic_3761bd45a75fb07fbf7c91df5e0011b5.jpeg"
    ]
  },
  {
    "name": "旅岛咨询服务有限公司",
    "location": {
      "lat": 19.513579,
      "lng": 109.546856
    },
    "address": "海南省儋州市人民西路福源西部机动车检测中心旁",
    "province": "海南省",
    "city": "儋州市",
    "area": "",
    "telephone": "15808959659",
    "detail": 1,
    "uid": "cde77cdd7db8d85532f71d9b",
    "cover": "https://poi-pic-gz.cdn.bcebos.com/pic_a7b6f4ae6da74d5857dce7fef39bc859.jpeg",
    "photo_list": [
      "https://poi-pic-gz.cdn.bcebos.com/pic_a7b6f4ae6da74d5857dce7fef39bc859.jpeg",
      "https://poi-pic-gz.cdn.bcebos.com/pic_c6c15817ab4a37dc2226d3e33552dfa5.jpg",
      "https://poi-pic-gz.cdn.bcebos.com/pic_e37d7f5d5259032d7babcc783e6bf494.jpeg",
      "https://poi-pic-gz.cdn.bcebos.com/pic_522802ffb13cda00d1601300554db919.jpeg",
      "https://poi-pic-gz.cdn.bcebos.com/pic_68c78b95b0155483d0b4ac27f4ad9cd3.jpeg"
    ]
  }
]