[
  {
    "name": "辽宁平安北斗星汽车服务有限公司",
    "location": {
      "lat": 41.317737,
      "lng": 123.822262
    },
    "address": "本溪市明山区峪安巷华夏智慧体艺幼儿园东侧约60米",
    "province": "辽宁省",
    "city": "本溪市",
    "area": "明山区",
    "street_id": "13081504cfd8b0f770455b83",
    "detail": 1,
    "uid": "13081504cfd8b0f770455b83",
    "cover": "https://poi-pic-gz.cdn.bcebos.com/pic_b7bafd4a29f05698b4d95ccdaca751fa.jpeg",
    "photo_list": [
      "https://mapsv0.bdimg.com/?qt=pr3dpoi&uid=13081504cfd8b0f770455b83&width=720&height=360&quality=80&fovx=120",
      "https://poi-pic-gz.cdn.bcebos.com/pic_da65d97b6b9df010ae4328a90de281a3.jpg",
      "https://poi-pic-gz.cdn.bcebos.com/pic_87ced18c2be75065e6a1ee7618650977.jpg",
      "https://poi-pic-gz.cdn.bcebos.com/pic_c8a2da82e6802dc6edb4998080b0205a.jpg",
      "https://poi-pic-gz.cdn.bcebos.com/pic_3096773bdad275134cf20c12168857cb.jpeg",
      "https://poi-pic-gz.cdn.bcebos.com/pic_d64332ed2f6369744a8d4a722e52442e.jpeg"
    ]
  },
  {
    "name": "应急救援",
    "location": {
      "lat": 41.268186,
      "lng": 125.374224
    },
    "address": "本溪市桓仁满族自治县中心大街东景骊濠南侧约110米",
    "province": "辽宁省",
    "city": "本溪市",
    "area": "桓仁满族自治县",
    "telephone": "(024)48199958",
    "detail": 1,
    "uid": "3004f062a2ab2ce600ff2dd3",
    "cover": "https://poi-pic-gz.cdn.bcebos.com/pic_e214ed5b664596ca353ea7cfe9eaf54c.jpeg",
    "photo_list": [
      "https://poi-pic-gz.cdn.bcebos.com/pic_e214ed5b664596ca353ea7cfe9eaf54c.jpeg",
      "https://poi-pic-gz.cdn.bcebos.com/pic_2b0a3f98b06844c9b781eb72a4f43636.jpeg",
      "https://poi-pic-gz.cdn.bcebos.com/pic_91bbf647728c91b42f691e5f5ceb31fb.jpeg"
    ]
  },
  {
    "name": "本溪消防-东南门",
    "location": {
      "lat": 41.321578,
      "lng": 123.807086
    },
    "address": "本溪市明山区华溪路北100米",
    "province": "辽宁省",
    "city": "本溪市",
    "area": "明山区",
    "detail": 1,
    "uid": "d88dfa7384fc13680f0e6b13",
    "cover": "https://pic-map.cdn.bcebos.com/img/73dfa5c120861d65f237fe85bbb0ba1b",
    "photo_list": [
      "https://pic-map.cdn.bcebos.com/img/73dfa5c120861d65f237fe85bbb0ba1b"
    ]
  },
  {
    "name": "人保财险定点合作修配厂",
    "location": {
      "lat": 41.298543,
      "lng": 123.80228
    },
    "address": "本溪市明山区唐家路景康名苑东南侧约90米",
    "province": "辽宁省",
    "city": "本溪市",
    "area": "明山区",
    "telephone": "18641496675",
    "detail": 1,
    "uid": "f6e2552250ebe403c056acbe",
    "cover": "https://poi-pic-gz.cdn.bcebos.com/pic_1d068feb0887ac1b61b1ccf7491c3146.jpg",
    "photo_list": [
      "https://poi-pic-gz.cdn.bcebos.com/pic_1d068feb0887ac1b61b1ccf7491c3146.jpg"
    ]
  },
  {
    "name": "本溪满族自治县顺达旅游出租汽车有限公司",
    "location": {
      "lat": 41.287115,
      "lng": 124.133345
    },
    "address": "本溪市本溪满族自治县张堡街快乐幼儿园东南侧约220米",
    "province": "辽宁省",
    "city": "本溪市",
    "area": "本溪满族自治县",
    "telephone": "(024)46884967",
    "detail": 1,
    "uid": "9a8a9058ec35bb669222e0af",
    "cover": "https://poi-pic-gz.cdn.bcebos.com/pic_997cdae6fcee18604b0cc02e2ef4f70d.jpeg",
    "photo_list": [
      "https://poi-pic-gz.cdn.bcebos.com/pic_997cdae6fcee18604b0cc02e2ef4f70d.jpeg",
      "https://poi-pic-gz.cdn.bcebos.com/pic_679634263f32a7c3aa33e70d972f15d6.jpeg",
      "https://poi-pic-gz.cdn.bcebos.com/pic_c6263ff6285b1e0aa5daf7bec6f6c6d9.jpeg",
      "https://poi-pic-gz.cdn.bcebos.com/pic_710075455a1629092b75d94a8d3e9a25.jpeg",
      "https://poi-pic-gz.cdn.bcebos.com/pic_d48c8968d90543eec52fbafa79144ecd.jpg",
      "https://poi-pic-gz.cdn.bcebos.com/pic_c8d252269ce92c9cae4968b7c15d42ed.jpg"
    ]
  },
  {
    "name": "正兴集团本溪车轮有限公司女职工关爱室",
    "location": {
      "lat": 41.357922,
      "lng": 123.910379
    },
    "address": "辽宁省本溪市明山区S106",
    "province": "辽宁省",
    "city": "本溪市",
    "area": "明山区",
    "telephone": "(024)43153905",
    "detail": 1,
    "uid": "7df0a06897b073349a005017",
    "cover": "https://lbsugc.cdn.bcebos.com/images/B61cd0c8bc905fa66b.jpeg",
    "photo_list": [
      "https://lbsugc.cdn.bcebos.com/images/B61cd0c8bc905fa66b.jpeg",
      "https://lbsugc.cdn.bcebos.com/images/B61cd0bfe08a2c11f9a.jpeg",
      "https://lbsugc.cdn.bcebos.com/images/B61cd0c4b7b8e052ff.jpeg",
      "https://lbsugc.cdn.bcebos.com/images/B61cd0c1843ab2d0eb.jpeg"
    ]
  },
  {
    "name": "中国消防救援",
    "location": {
      "lat": 41.311793,
      "lng": 123.78453
    },
    "address": "本溪市明山区水塔路天龙新区东侧约40米",
    "province": "辽宁省",
    "city": "本溪市",
    "area": "明山区",
    "detail": 1,
    "uid": "9375b9cefd478b78c9c3db30",
    "cover": "https://poi-pic-gz.cdn.bcebos.com/pic_118160cb8311f11b81adbd3fe9a615e3.jpeg",
    "photo_list": [
      "https://poi-pic-gz.cdn.bcebos.com/pic_118160cb8311f11b81adbd3fe9a615e3.jpeg"
    ]
  }
]