[
  {
    "name": "江津应急救援",
    "location": {
      "lat": 29.27128,
      "lng": 106.270252
    },
    "address": "重庆市江津区艾坪山隧道",
    "province": "重庆市",
    "city": "重庆市",
    "area": "江津区",
    "detail": 1,
    "uid": "00d3703dca5643e9b04c49e1",
    "cover": "https://pic-map.cdn.bcebos.com/img/811b049ad6bd78ddad8677b78942426a",
    "photo_list": [
      "https://pic-map.cdn.bcebos.com/img/811b049ad6bd78ddad8677b78942426a"
    ]
  },
  {
    "name": "119消防救援",
    "location": {
      "lat": 29.282636,
      "lng": 106.276824
    },
    "address": "重庆市江津区琅山大道津都苑",
    "province": "重庆市",
    "city": "重庆市",
    "area": "江津区",
    "detail": 1,
    "uid": "1d7b3e36ae3070da28b97ca4",
    "cover": "https://poi-pic-gz.cdn.bcebos.com/pic_31f7760bda0d6af9b3604249721df1a2.jpeg",
    "photo_list": [
      "https://poi-pic-gz.cdn.bcebos.com/pic_31f7760bda0d6af9b3604249721df1a2.jpeg"
    ]
  },
  {
    "name": "蓝天救援",
    "location": {
      "lat": 29.349205,
      "lng": 106.433037
    },
    "address": "重庆市江津区华西路珞璜镇人民政府西侧约90米",
    "province": "重庆市",
    "city": "重庆市",
    "area": "江津区",
    "detail": 1,
    "uid": "1503700d6587b9402811d1f3",
    "cover": "https://taojin-pic-gz.cdn.bcebos.com/989111fc3ca5a73c30ad22f7b295d424.jpg",
    "photo_list": [
      "https://taojin-pic-gz.cdn.bcebos.com/989111fc3ca5a73c30ad22f7b295d424.jpg"
    ]
  },
  {
    "name": "昂冠汽修补胎搭电拖车救援",
    "location": {
      "lat": 29.568508,
      "lng": 106.593128
    },
    "address": "陕西路33号(朝天门地铁站1号口步行140米)协信商厦F2",
    "province": "重庆市",
    "city": "重庆市",
    "area": "渝中区",
    "telephone": "13035019283",
    "detail": 1,
    "uid": "8ae51508d6700cbf1ef74dea",
    "cover": "https://taojin-pic-gz.cdn.bcebos.com/78e96620235f288f94844a37e04ff719.jpeg",
    "photo_list": [
      "https://taojin-pic-gz.cdn.bcebos.com/78e96620235f288f94844a37e04ff719.jpeg"
    ]
  },
  {
    "name": "极致车服拖车救援",
    "location": {
      "lat": 29.54495,
      "lng": 106.519224
    },
    "address": "重庆市渝中区茶亭南路4号附4号",
    "province": "重庆市",
    "city": "重庆市",
    "area": "渝中区",
    "telephone": "17353277358",
    "detail": 1,
    "uid": "f1d1500c6762c0dd95f08c34",
    "cover": "https://poi-pic-gz.cdn.bcebos.com/pic_3b2694e5e894c61f17c41a09a59087a6.jpeg",
    "photo_list": [
      "https://poi-pic-gz.cdn.bcebos.com/pic_3b2694e5e894c61f17c41a09a59087a6.jpeg",
      "https://poi-pic-gz.cdn.bcebos.com/pic_cbceec7e913f9890855076f7d1c39c28.jpeg",
      "https://poi-pic-gz.cdn.bcebos.com/pic_013b400aff19b6998952bfe9a892a95f.jpeg",
      "https://poi-pic-gz.cdn.bcebos.com/pic_d36e1c61434890a66d0262b580c672b5.jpeg",
      "https://poi-pic-gz.cdn.bcebos.com/pic_20a01a4edfd77e1f6ebd5b6afd8ee744.jpeg",
      "https://poi-pic-gz.cdn.bcebos.com/pic_2f4939678668f615551888823fde2fa4.jpeg"
    ]
  },
  {
    "name": "重庆非同汽修补胎搭电拖车救援",
    "location": {
      "lat": 29.592274,
      "lng": 106.521112
    },
    "address": "重庆市渝北区松桥路75号上海大厦c-1~2号",
    "province": "重庆市",
    "city": "重庆市",
    "area": "渝北区",
    "street_id": "",
    "telephone": "13215522769",
    "detail": 1,
    "uid": "68d7187347b9f2c8c71e518e",
    "cover": "https://lbsugc.cdn.bcebos.com/images/B5ebba1dcdeb1e1835c.jpeg",
    "photo_list": [
      "https://lbsugc.cdn.bcebos.com/images/B5ebba1dcdeb1e1835c.jpeg",
      "https://lbsugc.cdn.bcebos.com/images/B5ebba1b68b64612bbf.jpeg",
      "https://poi-pic-gz.cdn.bcebos.com/pic_f9765b7a09192932c654af9ecb1d4ef5.jpeg",
      "https://poi-pic-gz.cdn.bcebos.com/pic_ff25609a6595e6737cfb76ffa795eeab.jpeg",
      "https://poi-pic-gz.cdn.bcebos.com/pic_a8835ec34cc2f9617df3062c64a0a0f4.jpeg",
      "https://poi-pic-gz.cdn.bcebos.com/pic_2a7b880cbe7f767c2bd104934ecb4f99.jpeg"
    ]
  },
  {
    "name": "有道轮胎救援",
    "location": {
      "lat": 29.434448,
      "lng": 106.428353
    },
    "address": "重庆市九龙坡区",
    "province": "重庆市",
    "city": "重庆市",
    "area": "九龙坡区",
    "detail": 1,
    "uid": "7182126cb3c0dd6c4afc8df7",
    "cover": "https://poi-pic-gz.cdn.bcebos.com/pic_accd6c440e01082435e0f9e51bbbc3b9.jpeg",
    "photo_list": [
      "https://poi-pic-gz.cdn.bcebos.com/pic_accd6c440e01082435e0f9e51bbbc3b9.jpeg"
    ]
  }
]