[
  {
    "name": "昂冠汽修补胎搭电拖车救援",
    "location": {
      "lat": 29.568508,
      "lng": 106.593128
    },
    "address": "陕西路33号(朝天门地铁站1号口步行140米)协信商厦F2",
    "province": "重庆市",
    "city": "重庆市",
    "area": "渝中区",
    "telephone": "13035019283",
    "detail": 1,
    "uid": "8ae51508d6700cbf1ef74dea",
    "cover": "https://taojin-pic-gz.cdn.bcebos.com/78e96620235f288f94844a37e04ff719.jpeg",
    "photo_list": [
      "https://taojin-pic-gz.cdn.bcebos.com/78e96620235f288f94844a37e04ff719.jpeg"
    ]
  },
  {
    "name": "万州区江南消防救援站",
    "location": {
      "lat": 30.809631,
      "lng": 108.415797
    },
    "address": "重庆市万州区江南大道鸿鸥·御江山西侧约70米",
    "province": "重庆市",
    "city": "重庆市",
    "area": "万州区",
    "detail": 1,
    "uid": "691d431dd306fcb42811d1ed",
    "cover": "https://poi-pic-gz.cdn.bcebos.com/pic_1a78263fba8abfcfb6cb42e4e4a1fec4.jpeg",
    "photo_list": [
      "https://poi-pic-gz.cdn.bcebos.com/pic_1a78263fba8abfcfb6cb42e4e4a1fec4.jpeg",
      "https://poi-pic-gz.cdn.bcebos.com/pic_4bcbd3cbefa240d94513934fe49ec5a3.jpeg",
      "https://poi-pic-gz.cdn.bcebos.com/pic_9dd5dd9e3400cc8cbae768a884d698ef.jpeg"
    ]
  },
  {
    "name": "极致车服拖车救援",
    "location": {
      "lat": 29.54495,
      "lng": 106.519224
    },
    "address": "重庆市渝中区茶亭南路4号附4号",
    "province": "重庆市",
    "city": "重庆市",
    "area": "渝中区",
    "telephone": "17353277358",
    "detail": 1,
    "uid": "f1d1500c6762c0dd95f08c34",
    "cover": "https://poi-pic-gz.cdn.bcebos.com/pic_3b2694e5e894c61f17c41a09a59087a6.jpeg",
    "photo_list": [
      "https://poi-pic-gz.cdn.bcebos.com/pic_3b2694e5e894c61f17c41a09a59087a6.jpeg",
      "https://poi-pic-gz.cdn.bcebos.com/pic_cbceec7e913f9890855076f7d1c39c28.jpeg",
      "https://poi-pic-gz.cdn.bcebos.com/pic_013b400aff19b6998952bfe9a892a95f.jpeg",
      "https://poi-pic-gz.cdn.bcebos.com/pic_d36e1c61434890a66d0262b580c672b5.jpeg",
      "https://poi-pic-gz.cdn.bcebos.com/pic_20a01a4edfd77e1f6ebd5b6afd8ee744.jpeg",
      "https://poi-pic-gz.cdn.bcebos.com/pic_2f4939678668f615551888823fde2fa4.jpeg"
    ]
  },
  {
    "name": "重庆非同汽修补胎搭电拖车救援",
    "location": {
      "lat": 29.592274,
      "lng": 106.521112
    },
    "address": "重庆市渝北区松桥路75号上海大厦c-1~2号",
    "province": "重庆市",
    "city": "重庆市",
    "area": "渝北区",
    "street_id": "",
    "telephone": "13215522769",
    "detail": 1,
    "uid": "68d7187347b9f2c8c71e518e",
    "cover": "https://lbsugc.cdn.bcebos.com/images/B5ebba1dcdeb1e1835c.jpeg",
    "photo_list": [
      "https://lbsugc.cdn.bcebos.com/images/B5ebba1dcdeb1e1835c.jpeg",
      "https://lbsugc.cdn.bcebos.com/images/B5ebba1b68b64612bbf.jpeg",
      "https://poi-pic-gz.cdn.bcebos.com/pic_f9765b7a09192932c654af9ecb1d4ef5.jpeg",
      "https://poi-pic-gz.cdn.bcebos.com/pic_ff25609a6595e6737cfb76ffa795eeab.jpeg",
      "https://poi-pic-gz.cdn.bcebos.com/pic_a8835ec34cc2f9617df3062c64a0a0f4.jpeg",
      "https://poi-pic-gz.cdn.bcebos.com/pic_2a7b880cbe7f767c2bd104934ecb4f99.jpeg"
    ]
  },
  {
    "name": "有道轮胎救援",
    "location": {
      "lat": 29.434448,
      "lng": 106.428353
    },
    "address": "重庆市九龙坡区",
    "province": "重庆市",
    "city": "重庆市",
    "area": "九龙坡区",
    "detail": 1,
    "uid": "7182126cb3c0dd6c4afc8df7",
    "cover": "https://poi-pic-gz.cdn.bcebos.com/pic_accd6c440e01082435e0f9e51bbbc3b9.jpeg",
    "photo_list": [
      "https://poi-pic-gz.cdn.bcebos.com/pic_accd6c440e01082435e0f9e51bbbc3b9.jpeg"
    ]
  },
  {
    "name": "火线救援",
    "location": {
      "lat": 29.663188,
      "lng": 106.62682
    },
    "address": "重庆市渝北区两港大道与银梭大道交叉口圣名游乐城陆地乐园",
    "province": "重庆市",
    "city": "重庆市",
    "area": "渝北区",
    "detail": 1,
    "uid": "8d422b171dd0a9d4260bd0cd",
    "cover": "https://lbsugc.cdn.bcebos.com/images/ba6eba9cf56fa08ec7e893647881adfd_9716.jpeg",
    "photo_list": [
      "https://lbsugc.cdn.bcebos.com/images/ba6eba9cf56fa08ec7e893647881adfd_9716.jpeg",
      "https://lbsugc.cdn.bcebos.com/images/3b984b4ce997bbc1915ab1ceada550d1_0534.jpeg",
      "https://poi-pic-gz.cdn.bcebos.com/pic_084c3f8c6e22ddabecf10c20b528167d.jpeg",
      "https://poi-pic-gz.cdn.bcebos.com/pic_2fda1221d2c783d246da8d88a0bcd70f.jpeg"
    ]
  },
  {
    "name": "极致车服救援轮胎",
    "location": {
      "lat": 29.534271,
      "lng": 106.486764
    },
    "address": "重庆市九龙坡区石新路2号附15号",
    "province": "重庆市",
    "city": "重庆市",
    "area": "九龙坡区",
    "telephone": "17353277358",
    "detail": 1,
    "uid": "527a87b84a9e2ecfd13ce32a",
    "cover": "https://poi-pic-gz.cdn.bcebos.com/pic_4c26c0521dad92cc6ec54835995fec06.jpeg",
    "photo_list": [
      "https://poi-pic-gz.cdn.bcebos.com/pic_4c26c0521dad92cc6ec54835995fec06.jpeg",
      "https://poi-pic-gz.cdn.bcebos.com/pic_49cda34ef827d69877832975b0ab7cd1.jpeg",
      "https://lbsugc.cdn.bcebos.com/images/B66c9609f2cbc9ed27.jpeg",
      "https://lbsugc.cdn.bcebos.com/images/2488b742ed8566d21f5207e5cb26fad9_5745.jpeg",
      "https://poi-pic-gz.cdn.bcebos.com/pic_70323391068d93b26f228f734398ff91.jpeg",
      "https://poi-pic-gz.cdn.bcebos.com/pic_85657a1a092f19c4c747cbca45b24969.jpeg"
    ]
  },
  {
    "name": "中国消防救援",
    "location": {
      "lat": 30.767339,
      "lng": 108.451988
    },
    "address": "重庆市万州区上海支路富民花园南侧",
    "province": "重庆市",
    "city": "重庆市",
    "area": "万州区",
    "detail": 1,
    "uid": "8b39b9cd728b33bcd6851fb7",
    "cover": "https://pic-map.cdn.bcebos.com/img/a463a09465f5a247d4ac1902f60b32b4",
    "photo_list": [
      "https://pic-map.cdn.bcebos.com/img/a463a09465f5a247d4ac1902f60b32b4",
      "https://poi-pic-gz.cdn.bcebos.com/pic_d82e158ab92f6df2175c8a922dc04607.jpeg"
    ]
  }
]